{
"type": "FeatureCollection",
"name": "hospitals",
"features": [
{ "type": "Feature", "properties": { "OBJECTID": 14510, "ID": "0010602129", "NAME": "SPAULDING REHABILITATION HOSPITAL", "ZIP": "02129", "TYPE": "REHABILITATION", "STATUS": "OPEN", "POPULATION": 132, "BEDS": 132, "TRAUMA": "NOT AVAILABLE", "HELIPAD": "NOT AVAILABLE" }, "geometry": { "type": "Point", "coordinates": [ -71.049055545999977, 42.378509076000057 ] } },
{ "type": "Feature", "properties": { "OBJECTID": 14511, "ID": "0012602537", "NAME": "SPAULDING REHABILITATION HOSPITAL CAPE COD", "ZIP": "02537", "TYPE": "REHABILITATION", "STATUS": "OPEN", "POPULATION": 60, "BEDS": 60, "TRAUMA": "NOT AVAILABLE", "HELIPAD": "N" }, "geometry": { "type": "Point", "coordinates": [ -70.468102836999947, 41.732984497000075 ] } },
{ "type": "Feature", "properties": { "OBJECTID": 14513, "ID": "0004002062", "NAME": "NORWOOD HOSPITAL", "ZIP": "02062", "TYPE": "GENERAL ACUTE CARE", "STATUS": "OPEN", "POPULATION": 215, "BEDS": 215, "TRAUMA": "NOT AVAILABLE", "HELIPAD": "Y" }, "geometry": { "type": "Point", "coordinates": [ -71.2021, 42.189 ] } },
{ "type": "Feature", "properties": { "OBJECTID": 14514, "ID": "0002502302", "NAME": "SIGNATURE HEALTHCARE BROCKTON HOSPITAL", "ZIP": "02302", "TYPE": "GENERAL ACUTE CARE", "STATUS": "OPEN", "POPULATION": 197, "BEDS": 197, "TRAUMA": "NOT AVAILABLE", "HELIPAD": "NOT AVAILABLE" }, "geometry": { "type": "Point", "coordinates": [ -70.9915, 42.0879 ] } },
{ "type": "Feature", "properties": { "OBJECTID": 14515, "ID": "0013102780", "NAME": "TAUNTON STATE HOSPITAL", "ZIP": "02780", "TYPE": "PSYCHIATRIC", "STATUS": "OPEN", "POPULATION": 30, "BEDS": 45, "TRAUMA": "NOT AVAILABLE", "HELIPAD": "NOT AVAILABLE" }, "geometry": { "type": "Point", "coordinates": [ -71.102205883999943, 41.91267153900003 ] } },
{ "type": "Feature", "properties": { "OBJECTID": 14516, "ID": "0013201876", "NAME": "TEWKSBURY HOSPITAL", "ZIP": "01876", "TYPE": "CHRONIC DISEASE", "STATUS": "OPEN", "POPULATION": 675, "BEDS": 675, "TRAUMA": "NOT AVAILABLE", "HELIPAD": "NOT AVAILABLE" }, "geometry": { "type": "Point", "coordinates": [ -71.218223197999976, 42.607074197000031 ] } },
{ "type": "Feature", "properties": { "OBJECTID": 14517, "ID": "0005301605", "NAME": "UMASS MEMORIAL MEDICAL CENTER - MEMORIAL CAMPUS", "ZIP": "01605", "TYPE": "GENERAL ACUTE CARE", "STATUS": "OPEN", "POPULATION": 303, "BEDS": 303, "TRAUMA": "LEVEL I, PEDIATRIC II", "HELIPAD": "NOT AVAILABLE" }, "geometry": { "type": "Point", "coordinates": [ -71.7923, 42.2729 ] } },
{ "type": "Feature", "properties": { "OBJECTID": 14518, "ID": "0011801542", "NAME": "VIBRA HOSPITAL OF WESTERN MASS CENTRAL CAMPUS", "ZIP": "01542", "TYPE": "LONG TERM CARE", "STATUS": "OPEN", "POPULATION": 47, "BEDS": 47, "TRAUMA": "NOT AVAILABLE", "HELIPAD": "NOT AVAILABLE" }, "geometry": { "type": "Point", "coordinates": [ -71.898827342999937, 42.201899283000046 ] } },
{ "type": "Feature", "properties": { "OBJECTID": 14519, "ID": "0012801109", "NAME": "VIBRA HOSPITAL OF WESTERN MASSACHUSETTS", "ZIP": "01109", "TYPE": "LONG TERM CARE", "STATUS": "OPEN", "POPULATION": 127, "BEDS": 127, "TRAUMA": "NOT AVAILABLE", "HELIPAD": "NOT AVAILABLE" }, "geometry": { "type": "Point", "coordinates": [ -72.547438414999988, 42.120518363000031 ] } },
{ "type": "Feature", "properties": { "OBJECTID": 14520, "ID": "0012502359", "NAME": "WESTWOOD\/PEMBROKE HEALTH SYSTEM PEMBROKE", "ZIP": "02359", "TYPE": "PSYCHIATRIC", "STATUS": "OPEN", "POPULATION": 120, "BEDS": 120, "TRAUMA": "NOT AVAILABLE", "HELIPAD": "NOT AVAILABLE" }, "geometry": { "type": "Point", "coordinates": [ -70.764458635999972, 42.097623722000037 ] } },
{ "type": "Feature", "properties": { "OBJECTID": 14521, "ID": "0013602090", "NAME": "WESTWOOD\/PEMBROKE HEALTH SYSTEM WESTWOOD", "ZIP": "02090", "TYPE": "PSYCHIATRIC", "STATUS": "OPEN", "POPULATION": 89, "BEDS": 89, "TRAUMA": "NOT AVAILABLE", "HELIPAD": "N" }, "geometry": { "type": "Point", "coordinates": [ -71.224077231999956, 42.206504148000079 ] } },
{ "type": "Feature", "properties": { "OBJECTID": 14522, "ID": "0011601830", "NAME": "WHITTIER PAVILION", "ZIP": "01830", "TYPE": "PSYCHIATRIC", "STATUS": "OPEN", "POPULATION": 10, "BEDS": 10, "TRAUMA": "NOT AVAILABLE", "HELIPAD": "N" }, "geometry": { "type": "Point", "coordinates": [ -71.073176369999942, 42.778546964000043 ] } },
{ "type": "Feature", "properties": { "OBJECTID": 14523, "ID": "0013401581", "NAME": "WHITTIER REHABILITATION HOSPITAL", "ZIP": "01581", "TYPE": "REHABILITATION", "STATUS": "OPEN", "POPULATION": 88, "BEDS": 88, "TRAUMA": "NOT AVAILABLE", "HELIPAD": "NOT AVAILABLE" }, "geometry": { "type": "Point", "coordinates": [ -71.567841776999956, 42.27647967200005 ] } },
{ "type": "Feature", "properties": { "OBJECTID": 14524, "ID": "0011701830", "NAME": "WHITTIER REHABILITATION HOSPITAL BRADFORD", "ZIP": "01830", "TYPE": "REHABILITATION", "STATUS": "OPEN", "POPULATION": 60, "BEDS": 60, "TRAUMA": "NOT AVAILABLE", "HELIPAD": "N" }, "geometry": { "type": "Point", "coordinates": [ -71.118898379999962, 42.761619082000038 ] } },
{ "type": "Feature", "properties": { "OBJECTID": 14525, "ID": "0005401655", "NAME": "UMASS MEMORIAL MEDICAL CENTER - UNIVERSITY CAMPUS", "ZIP": "01655", "TYPE": "GENERAL ACUTE CARE", "STATUS": "OPEN", "POPULATION": 431, "BEDS": 431, "TRAUMA": "NOT AVAILABLE", "HELIPAD": "Y" }, "geometry": { "type": "Point", "coordinates": [ -71.7617, 42.2778 ] } },
{ "type": "Feature", "properties": { "OBJECTID": 14526, "ID": "0013925027", "NAME": "WORCESTER RECOVERY CENTER AND HOSPITAL", "ZIP": "01604", "TYPE": "PSYCHIATRIC", "STATUS": "OPEN", "POPULATION": 166, "BEDS": 166, "TRAUMA": "NOT AVAILABLE", "HELIPAD": "NOT AVAILABLE" }, "geometry": { "type": "Point", "coordinates": [ -71.769066942999984, 42.27966718700003 ] } },
{ "type": "Feature", "properties": { "OBJECTID": 14527, "ID": "0003101301", "NAME": "BAYSTATE FRANKLIN MEDICAL CENTER", "ZIP": "01301", "TYPE": "GENERAL ACUTE CARE", "STATUS": "OPEN", "POPULATION": 89, "BEDS": 89, "TRAUMA": "NOT AVAILABLE", "HELIPAD": "NOT AVAILABLE" }, "geometry": { "type": "Point", "coordinates": [ -72.5923, 42.5957 ] } },
{ "type": "Feature", "properties": { "OBJECTID": 14528, "ID": "0000502215", "NAME": "BETH ISRAEL DEACONESS MEDICAL CENTER - EAST CAMPUS", "ZIP": "02215", "TYPE": "GENERAL ACUTE CARE", "STATUS": "OPEN", "POPULATION": 268, "BEDS": 268, "TRAUMA": "LEVEL I", "HELIPAD": "NOT AVAILABLE" }, "geometry": { "type": "Point", "coordinates": [ -71.1051, 42.3395 ] } },
{ "type": "Feature", "properties": { "OBJECTID": 14529, "ID": "0001302118", "NAME": "BOSTON MEDICAL CENTER - EAST NEWTON CAMPUS", "ZIP": "02118", "TYPE": "GENERAL ACUTE CARE", "STATUS": "OPEN", "POPULATION": 214, "BEDS": 214, "TRAUMA": "LEVEL I, PEDIATRIC I", "HELIPAD": "NOT AVAILABLE" }, "geometry": { "type": "Point", "coordinates": [ -71.0706, 42.337 ] } },
{ "type": "Feature", "properties": { "OBJECTID": 14530, "ID": "0001102118", "NAME": "BOSTON MEDICAL CENTER - MENINO CAMPUS", "ZIP": "02118", "TYPE": "GENERAL ACUTE CARE", "STATUS": "OPEN", "POPULATION": 368, "BEDS": 368, "TRAUMA": "LEVEL I, PEDIACTRIC II", "HELIPAD": "Y" }, "geometry": { "type": "Point", "coordinates": [ -71.0732, 42.3347 ] } },
{ "type": "Feature", "properties": { "OBJECTID": 14531, "ID": "0007502115", "NAME": "CHILDREN'S HOSPITAL BOSTON", "ZIP": "02115", "TYPE": "GENERAL ACUTE CARE", "STATUS": "OPEN", "POPULATION": 404, "BEDS": 404, "TRAUMA": "PEDIATRICS I", "HELIPAD": "Y" }, "geometry": { "type": "Point", "coordinates": [ -71.1064, 42.3372 ] } },
{ "type": "Feature", "properties": { "OBJECTID": 14532, "ID": "0003302155", "NAME": "HALLMARK HEALTH SYSTEM - LAWRENCE MEMORIAL HOSPITAL CAMPUS", "ZIP": "02155", "TYPE": "GENERAL ACUTE CARE", "STATUS": "OPEN", "POPULATION": 98, "BEDS": 98, "TRAUMA": "NOT AVAILABLE", "HELIPAD": "NOT AVAILABLE" }, "geometry": { "type": "Point", "coordinates": [ -71.1114, 42.4259 ] } },
{ "type": "Feature", "properties": { "OBJECTID": 14533, "ID": "0000202176", "NAME": "HALLMARK HEALTH SYSTEM - MELROSE-WAKEFIELD HOSPITAL CAMPUS", "ZIP": "02176", "TYPE": "GENERAL ACUTE CARE", "STATUS": "OPEN", "POPULATION": 174, "BEDS": 174, "TRAUMA": "NOT AVAILABLE", "HELIPAD": "NOT AVAILABLE" }, "geometry": { "type": "Point", "coordinates": [ -71.0609, 42.4605 ] } },
{ "type": "Feature", "properties": { "OBJECTID": 14534, "ID": "0003401844", "NAME": "HOLY FAMILY HOSPITAL AND MEDICAL CENTER", "ZIP": "01844", "TYPE": "GENERAL ACUTE CARE", "STATUS": "OPEN", "POPULATION": 223, "BEDS": 223, "TRAUMA": "NOT AVAILABLE", "HELIPAD": "Y" }, "geometry": { "type": "Point", "coordinates": [ -71.1683, 42.7277 ] } },
{ "type": "Feature", "properties": { "OBJECTID": 14535, "ID": "0006902139", "NAME": "CAMBRIDGE HEALTH ALLIANCE - CAMBRIDGE CAMPUS", "ZIP": "02139", "TYPE": "GENERAL ACUTE CARE", "STATUS": "OPEN", "POPULATION": 189, "BEDS": 189, "TRAUMA": "NOT AVAILABLE", "HELIPAD": "NOT AVAILABLE" }, "geometry": { "type": "Point", "coordinates": [ -71.1041, 42.3745 ] } },
{ "type": "Feature", "properties": { "OBJECTID": 14536, "ID": "0004701199", "NAME": "BAYSTATE MEDICAL CENTER", "ZIP": "01199", "TYPE": "GENERAL ACUTE CARE", "STATUS": "OPEN", "POPULATION": 724, "BEDS": 724, "TRAUMA": "LEVEL I, PEDIATRIC II", "HELIPAD": "Y" }, "geometry": { "type": "Point", "coordinates": [ -72.6032, 42.1217 ] } },
{ "type": "Feature", "properties": { "OBJECTID": 14537, "ID": "0004201201", "NAME": "BERKSHIRE MEDICAL CENTER - BERKSHIRE CAMPUS", "ZIP": "01201", "TYPE": "GENERAL ACUTE CARE", "STATUS": "OPEN", "POPULATION": 298, "BEDS": 298, "TRAUMA": "LEVEL III", "HELIPAD": "NOT AVAILABLE" }, "geometry": { "type": "Point", "coordinates": [ -73.2492, 42.46 ] } },
{ "type": "Feature", "properties": { "OBJECTID": 14538, "ID": "0005502601", "NAME": "CAPE COD HOSPITAL", "ZIP": "02601", "TYPE": "GENERAL ACUTE CARE", "STATUS": "OPEN", "POPULATION": 252, "BEDS": 252, "TRAUMA": "NOT AVAILABLE", "HELIPAD": "NOT AVAILABLE" }, "geometry": { "type": "Point", "coordinates": [ -70.2729, 41.6534 ] } },
{ "type": "Feature", "properties": { "OBJECTID": 14539, "ID": "0003901061", "NAME": "COOLEY DICKINSON HOSPITAL", "ZIP": "01061", "TYPE": "GENERAL ACUTE CARE", "STATUS": "OPEN", "POPULATION": 140, "BEDS": 140, "TRAUMA": "NOT AVAILABLE", "HELIPAD": "NOT AVAILABLE" }, "geometry": { "type": "Point", "coordinates": [ -72.6532, 42.3302 ] } },
{ "type": "Feature", "properties": { "OBJECTID": 14540, "ID": "0003001440", "NAME": "HEYWOOD HOSPITAL", "ZIP": "01440", "TYPE": "GENERAL ACUTE CARE", "STATUS": "OPEN", "POPULATION": 134, "BEDS": 134, "TRAUMA": "NOT AVAILABLE", "HELIPAD": "NOT AVAILABLE" }, "geometry": { "type": "Point", "coordinates": [ -71.9871, 42.5863 ] } },
{ "type": "Feature", "properties": { "OBJECTID": 14541, "ID": "0006201842", "NAME": "LAWRENCE GENERAL HOSPITAL", "ZIP": "01842", "TYPE": "GENERAL ACUTE CARE", "STATUS": "OPEN", "POPULATION": 189, "BEDS": 189, "TRAUMA": "LEVEL III", "HELIPAD": "Y" }, "geometry": { "type": "Point", "coordinates": [ -71.1501, 42.71 ] } },
{ "type": "Feature", "properties": { "OBJECTID": 14542, "ID": "0001501040", "NAME": "MERCY MEDICAL CENTER - PROVIDENCE BEHAVIORAL HEALTH HOSPITAL CAMPUS", "ZIP": "01040", "TYPE": "PSYCHIATRIC", "STATUS": "OPEN", "POPULATION": 131, "BEDS": 131, "TRAUMA": "NOT AVAILABLE", "HELIPAD": "NOT AVAILABLE" }, "geometry": { "type": "Point", "coordinates": [ -72.634, 42.1659 ] } },
{ "type": "Feature", "properties": { "OBJECTID": 14543, "ID": "0007601830", "NAME": "MERRIMACK VALLEY HOSPITAL", "ZIP": "01830", "TYPE": "GENERAL ACUTE CARE", "STATUS": "OPEN", "POPULATION": 122, "BEDS": 122, "TRAUMA": "NOT AVAILABLE", "HELIPAD": "Y" }, "geometry": { "type": "Point", "coordinates": [ -71.0448, 42.7653 ] } },
{ "type": "Feature", "properties": { "OBJECTID": 14544, "ID": "0167684201", "NAME": "ST VINCENTS CHILTON", "ZIP": "35046", "TYPE": "GENERAL ACUTE CARE", "STATUS": "OPEN", "POPULATION": 26, "BEDS": 26, "TRAUMA": "NOT AVAILABLE", "HELIPAD": "NOT AVAILABLE" }, "geometry": { "type": "Point", "coordinates": [ -86.62279, 32.880286 ] } },
{ "type": "Feature", "properties": { "OBJECTID": 14545, "ID": "0001601760", "NAME": "METROWEST MEDICAL CENTER - LEONARD MORSE CAMPUS", "ZIP": "01760", "TYPE": "GENERAL ACUTE CARE", "STATUS": "OPEN", "POPULATION": 160, "BEDS": 160, "TRAUMA": "NOT AVAILABLE", "HELIPAD": "NOT AVAILABLE" }, "geometry": { "type": "Point", "coordinates": [ -71.3356, 42.28 ] } },
{ "type": "Feature", "properties": { "OBJECTID": 14546, "ID": "0004902780", "NAME": "MORTON HOSPITAL AND MEDICAL CENTER", "ZIP": "02780", "TYPE": "GENERAL ACUTE CARE", "STATUS": "OPEN", "POPULATION": 125, "BEDS": 125, "TRAUMA": "NOT AVAILABLE", "HELIPAD": "Y" }, "geometry": { "type": "Point", "coordinates": [ -71.0945, 41.9062 ] } },
{ "type": "Feature", "properties": { "OBJECTID": 14547, "ID": "0002602138", "NAME": "MOUNT AUBURN HOSPITAL", "ZIP": "02138", "TYPE": "GENERAL ACUTE CARE", "STATUS": "OPEN", "POPULATION": 217, "BEDS": 217, "TRAUMA": "NOT AVAILABLE", "HELIPAD": "NOT AVAILABLE" }, "geometry": { "type": "Point", "coordinates": [ -71.1343, 42.3741 ] } },
{ "type": "Feature", "properties": { "OBJECTID": 14548, "ID": "0002101432", "NAME": "NASHOBA VALLEY MEDICAL CENTER", "ZIP": "01432", "TYPE": "GENERAL ACUTE CARE", "STATUS": "OPEN", "POPULATION": 77, "BEDS": 77, "TRAUMA": "NOT AVAILABLE", "HELIPAD": "Y" }, "geometry": { "type": "Point", "coordinates": [ -71.5739, 42.5775 ] } },
{ "type": "Feature", "properties": { "OBJECTID": 14549, "ID": "0003802462", "NAME": "NEWTON-WELLESLEY HOSPITAL", "ZIP": "02462", "TYPE": "GENERAL ACUTE CARE", "STATUS": "OPEN", "POPULATION": 265, "BEDS": 265, "TRAUMA": "NOT AVAILABLE", "HELIPAD": "NOT AVAILABLE" }, "geometry": { "type": "Point", "coordinates": [ -71.246, 42.3312 ] } },
{ "type": "Feature", "properties": { "OBJECTID": 14550, "ID": "0005601915", "NAME": "NORTHEAST HOSPITAL CORPORATION - BEVERLY CAMPUS", "ZIP": "01915", "TYPE": "GENERAL ACUTE CARE", "STATUS": "OPEN", "POPULATION": 227, "BEDS": 227, "TRAUMA": "LEVEL III", "HELIPAD": "Y" }, "geometry": { "type": "Point", "coordinates": [ -70.8757, 42.5641 ] } },
{ "type": "Feature", "properties": { "OBJECTID": 14551, "ID": "0005802721", "NAME": "SAINT ANNE'S HOSPITAL", "ZIP": "02721", "TYPE": "GENERAL ACUTE CARE", "STATUS": "OPEN", "POPULATION": 185, "BEDS": 185, "TRAUMA": "NOT AVAILABLE", "HELIPAD": "NOT AVAILABLE" }, "geometry": { "type": "Point", "coordinates": [ -71.1637, 41.6926 ] } },
{ "type": "Feature", "properties": { "OBJECTID": 14552, "ID": "0000401608", "NAME": "SAINT VINCENT HOSPITAL", "ZIP": "01608", "TYPE": "GENERAL ACUTE CARE", "STATUS": "OPEN", "POPULATION": 283, "BEDS": 283, "TRAUMA": "NOT AVAILABLE", "HELIPAD": "NOT AVAILABLE" }, "geometry": { "type": "Point", "coordinates": [ -71.7915, 42.2498 ] } },
{ "type": "Feature", "properties": { "OBJECTID": 14553, "ID": "0000702557", "NAME": "MARTHA'S VINEYARD HOSPITAL", "ZIP": "02557", "TYPE": "GENERAL ACUTE CARE", "STATUS": "OPEN", "POPULATION": 25, "BEDS": 25, "TRAUMA": "NOT AVAILABLE", "HELIPAD": "Y" }, "geometry": { "type": "Point", "coordinates": [ -70.5798, 41.4608 ] } },
{ "type": "Feature", "properties": { "OBJECTID": 14554, "ID": "0006802190", "NAME": "SOUTH SHORE HOSPITAL", "ZIP": "02190", "TYPE": "GENERAL ACUTE CARE", "STATUS": "OPEN", "POPULATION": 370, "BEDS": 370, "TRAUMA": "LEVEL II", "HELIPAD": "NOT AVAILABLE" }, "geometry": { "type": "Point", "coordinates": [ -70.9541, 42.176 ] } },
{ "type": "Feature", "properties": { "OBJECTID": 14555, "ID": "0005702720", "NAME": "SOUTHCOAST HOSPITALS GROUP - CHARLTON MEMORIAL HOSPITAL", "ZIP": "02720", "TYPE": "GENERAL ACUTE CARE", "STATUS": "OPEN", "POPULATION": 328, "BEDS": 328, "TRAUMA": "NOT AVAILABLE", "HELIPAD": "Y" }, "geometry": { "type": "Point", "coordinates": [ -71.146, 41.7094 ] } },
{ "type": "Feature", "properties": { "OBJECTID": 14556, "ID": "0003602740", "NAME": "SOUTHCOAST HOSPITALS GROUP - ST. LUKE'S HOSPITAL", "ZIP": "02740", "TYPE": "GENERAL ACUTE CARE", "STATUS": "OPEN", "POPULATION": 391, "BEDS": 391, "TRAUMA": "NOT AVAILABLE", "HELIPAD": "Y" }, "geometry": { "type": "Point", "coordinates": [ -70.9384, 41.6264 ] } },
{ "type": "Feature", "properties": { "OBJECTID": 14557, "ID": "0002002703", "NAME": "STURDY MEMORIAL HOSPITAL", "ZIP": "02703", "TYPE": "GENERAL ACUTE CARE", "STATUS": "OPEN", "POPULATION": 132, "BEDS": 132, "TRAUMA": "NOT AVAILABLE", "HELIPAD": "Y" }, "geometry": { "type": "Point", "coordinates": [ -71.2748, 41.942 ] } },
{ "type": "Feature", "properties": { "OBJECTID": 14558, "ID": "0002402135", "NAME": "ST. ELIZABETH'S MEDICAL CENTER", "ZIP": "02135", "TYPE": "GENERAL ACUTE CARE", "STATUS": "OPEN", "POPULATION": 252, "BEDS": 252, "TRAUMA": "NOT AVAILABLE", "HELIPAD": "NOT AVAILABLE" }, "geometry": { "type": "Point", "coordinates": [ -71.1485, 42.3487 ] } },
{ "type": "Feature", "properties": { "OBJECTID": 14559, "ID": "0005201890", "NAME": "WINCHESTER HOSPITAL", "ZIP": "01890", "TYPE": "GENERAL ACUTE CARE", "STATUS": "OPEN", "POPULATION": 189, "BEDS": 189, "TRAUMA": "NOT AVAILABLE", "HELIPAD": "NOT AVAILABLE" }, "geometry": { "type": "Point", "coordinates": [ -71.1228, 42.466 ] } },
{ "type": "Feature", "properties": { "OBJECTID": 14560, "ID": "0014428603", "NAME": "ALEXANDER HOSPITAL", "ZIP": "28603", "TYPE": "GENERAL ACUTE CARE", "STATUS": "OPEN", "POPULATION": 25, "BEDS": 25, "TRAUMA": "NOT AVAILABLE", "HELIPAD": "N" }, "geometry": { "type": "Point", "coordinates": [ -81.291107605999969, 35.695594485000072 ] } },
{ "type": "Feature", "properties": { "OBJECTID": 14561, "ID": "0005927028", "NAME": "DAVIE COUNTY HOSPITAL", "ZIP": "27028", "TYPE": "GENERAL ACUTE CARE", "STATUS": "CLOSED", "POPULATION": 81, "BEDS": 81, "TRAUMA": "NOT AVAILABLE", "HELIPAD": "NOT AVAILABLE" }, "geometry": { "type": "Point", "coordinates": [ -80.57179141599994, 35.899376197000038 ] } },
{ "type": "Feature", "properties": { "OBJECTID": 14562, "ID": "0167684126", "NAME": "DAVIE MEDICAL CENTER", "ZIP": "27006", "TYPE": "GENERAL ACUTE CARE", "STATUS": "OPEN", "POPULATION": 50, "BEDS": 50, "TRAUMA": "NOT AVAILABLE", "HELIPAD": "N" }, "geometry": { "type": "Point", "coordinates": [ -80.447589687999937, 36.009403894000059 ] } },
{ "type": "Feature", "properties": { "OBJECTID": 14564, "ID": "0007435476", "NAME": "NORTHPORT MEDICAL CENTER", "ZIP": "35476", "TYPE": "GENERAL ACUTE CARE", "STATUS": "OPEN", "POPULATION": 204, "BEDS": 204, "TRAUMA": "NOT AVAILABLE", "HELIPAD": "NOT AVAILABLE" }, "geometry": { "type": "Point", "coordinates": [ -87.570910897999966, 33.233981450000044 ] } },
{ "type": "Feature", "properties": { "OBJECTID": 14565, "ID": "0010935661", "NAME": "SHOALS HOSPITAL", "ZIP": "35661", "TYPE": "GENERAL ACUTE CARE", "STATUS": "OPEN", "POPULATION": 178, "BEDS": 178, "TRAUMA": "NOT AVAILABLE", "HELIPAD": "Y" }, "geometry": { "type": "Point", "coordinates": [ -87.676213419999954, 34.747192958000028 ] } },
{ "type": "Feature", "properties": { "OBJECTID": 14566, "ID": "0004735570", "NAME": "NORTH MISSISSIPPI MEDICAL CENTER - HAMILTON", "ZIP": "35570", "TYPE": "GENERAL ACUTE CARE", "STATUS": "OPEN", "POPULATION": 49, "BEDS": 49, "TRAUMA": "NOT AVAILABLE", "HELIPAD": "NOT AVAILABLE" }, "geometry": { "type": "Point", "coordinates": [ -87.990768776999971, 34.125977180000064 ] } },
{ "type": "Feature", "properties": { "OBJECTID": 14567, "ID": "0012136278", "NAME": "WEDOWEE HOSPITAL", "ZIP": "36278", "TYPE": "GENERAL ACUTE CARE", "STATUS": "OPEN", "POPULATION": 34, "BEDS": 34, "TRAUMA": "NOT AVAILABLE", "HELIPAD": "NOT AVAILABLE" }, "geometry": { "type": "Point", "coordinates": [ -85.48545246599997, 33.311404218000064 ] } },
{ "type": "Feature", "properties": { "OBJECTID": 14568, "ID": "0010735007", "NAME": "SHELBY BAPTIST MEDICAL CENTER", "ZIP": "35007", "TYPE": "GENERAL ACUTE CARE", "STATUS": "OPEN", "POPULATION": 252, "BEDS": 252, "TRAUMA": "III", "HELIPAD": "Y" }, "geometry": { "type": "Point", "coordinates": [ -86.813043014999948, 33.25236486700004 ] } },
{ "type": "Feature", "properties": { "OBJECTID": 14569, "ID": "0004435631", "NAME": "ELIZA COFFEE MEMORIAL HOSPITAL", "ZIP": "35631", "TYPE": "GENERAL ACUTE CARE", "STATUS": "OPEN", "POPULATION": 358, "BEDS": 358, "TRAUMA": "III", "HELIPAD": "Y" }, "geometry": { "type": "Point", "coordinates": [ -87.682850173999952, 34.793858034000039 ] } },
{ "type": "Feature", "properties": { "OBJECTID": 14570, "ID": "0007335976", "NAME": "MARSHALL MEDICAL CENTER NORTH", "ZIP": "35976", "TYPE": "GENERAL ACUTE CARE", "STATUS": "OPEN", "POPULATION": 90, "BEDS": 90, "TRAUMA": "III", "HELIPAD": "Y" }, "geometry": { "type": "Point", "coordinates": [ -86.421351526999956, 34.364913348000073 ] } },
{ "type": "Feature", "properties": { "OBJECTID": 14571, "ID": "0011036301", "NAME": "SOUTHEAST ALABAMA MEDICAL CENTER", "ZIP": "36301", "TYPE": "GENERAL ACUTE CARE", "STATUS": "OPEN", "POPULATION": 420, "BEDS": 420, "TRAUMA": "II", "HELIPAD": "Y" }, "geometry": { "type": "Point", "coordinates": [ -85.363631123999937, 31.216303648000064 ] } },
{ "type": "Feature", "properties": { "OBJECTID": 14572, "ID": "0005136027", "NAME": "MEDICAL CENTER BARBOUR", "ZIP": "36027", "TYPE": "GENERAL ACUTE CARE", "STATUS": "OPEN", "POPULATION": 74, "BEDS": 74, "TRAUMA": "III", "HELIPAD": "Y" }, "geometry": { "type": "Point", "coordinates": [ -85.156405418999952, 31.88864508000006 ] } },
{ "type": "Feature", "properties": { "OBJECTID": 14573, "ID": "0005536451", "NAME": "GROVE HILL MEMORIAL HOSPITAL", "ZIP": "36451", "TYPE": "GENERAL ACUTE CARE", "STATUS": "OPEN", "POPULATION": 50, "BEDS": 50, "TRAUMA": "III", "HELIPAD": "Y" }, "geometry": { "type": "Point", "coordinates": [ -87.77602462699997, 31.694302296000046 ] } },
{ "type": "Feature", "properties": { "OBJECTID": 14575, "ID": "0000136502", "NAME": "ATMORE COMMUNITY HOSPITAL", "ZIP": "36502", "TYPE": "GENERAL ACUTE CARE", "STATUS": "OPEN", "POPULATION": 51, "BEDS": 51, "TRAUMA": "III", "HELIPAD": "Y" }, "geometry": { "type": "Point", "coordinates": [ -87.478798512999958, 31.017023865000056 ] } },
{ "type": "Feature", "properties": { "OBJECTID": 14576, "ID": "0001836049", "NAME": "BEACON CHILDREN'S HOSPITAL", "ZIP": "36049", "TYPE": "PSYCHIATRIC", "STATUS": "OPEN", "POPULATION": 28, "BEDS": 28, "TRAUMA": "NOT AVAILABLE", "HELIPAD": "NOT AVAILABLE" }, "geometry": { "type": "Point", "coordinates": [ -86.263191509999956, 31.694588547000023 ] } },
{ "type": "Feature", "properties": { "OBJECTID": 14577, "ID": "0011536532", "NAME": "THOMAS HOSPITAL", "ZIP": "36532", "TYPE": "GENERAL ACUTE CARE", "STATUS": "OPEN", "POPULATION": 150, "BEDS": 150, "TRAUMA": "III", "HELIPAD": "NOT AVAILABLE" }, "geometry": { "type": "Point", "coordinates": [ -87.889447436999944, 30.518879028000072 ] } },
{ "type": "Feature", "properties": { "OBJECTID": 14578, "ID": "0004935903", "NAME": "GADSDEN REGIONAL MEDICAL CENTER", "ZIP": "35903", "TYPE": "GENERAL ACUTE CARE", "STATUS": "OPEN", "POPULATION": 346, "BEDS": 346, "TRAUMA": "III", "HELIPAD": "Y" }, "geometry": { "type": "Point", "coordinates": [ -85.965982140999984, 34.007736282000053 ] } },
{ "type": "Feature", "properties": { "OBJECTID": 14579, "ID": "0006936853", "NAME": "LAKE MARTIN COMMUNITY HOSPITAL", "ZIP": "36853", "TYPE": "GENERAL ACUTE CARE", "STATUS": "OPEN", "POPULATION": 46, "BEDS": 46, "TRAUMA": "NOT AVAILABLE", "HELIPAD": "Y" }, "geometry": { "type": "Point", "coordinates": [ -85.741139905999944, 32.818598569000073 ] } },
{ "type": "Feature", "properties": { "OBJECTID": 14580, "ID": "0010435010", "NAME": "RUSSELL HOSPITAL", "ZIP": "35010", "TYPE": "GENERAL ACUTE CARE", "STATUS": "OPEN", "POPULATION": 81, "BEDS": 81, "TRAUMA": "III", "HELIPAD": "Y" }, "geometry": { "type": "Point", "coordinates": [ -85.969566147999956, 32.93021327200006 ] } },
{ "type": "Feature", "properties": { "OBJECTID": 14581, "ID": "0002735960", "NAME": "CHEROKEE MEDICAL CENTER", "ZIP": "35960", "TYPE": "GENERAL ACUTE CARE", "STATUS": "OPEN", "POPULATION": 60, "BEDS": 60, "TRAUMA": "NOT AVAILABLE", "HELIPAD": "Y" }, "geometry": { "type": "Point", "coordinates": [ -85.651088775999938, 34.161458302000028 ] } },
{ "type": "Feature", "properties": { "OBJECTID": 14582, "ID": "0013735611", "NAME": "NORTH ALABAMA SPECIALTY HOSPITAL", "ZIP": "35611", "TYPE": "LONG TERM CARE", "STATUS": "OPEN", "POPULATION": 31, "BEDS": 31, "TRAUMA": "NOT AVAILABLE", "HELIPAD": "NOT AVAILABLE" }, "geometry": { "type": "Point", "coordinates": [ -86.978872602999957, 34.804245578000064 ] } },
{ "type": "Feature", "properties": { "OBJECTID": 14583, "ID": "0004336526", "NAME": "EASTPOINTE HOSPITAL", "ZIP": "36526", "TYPE": "PSYCHIATRIC", "STATUS": "OPEN", "POPULATION": 66, "BEDS": 66, "TRAUMA": "NOT AVAILABLE", "HELIPAD": "NOT AVAILABLE" }, "geometry": { "type": "Point", "coordinates": [ -87.895139096999969, 30.635289146000048 ] } },
{ "type": "Feature", "properties": { "OBJECTID": 14584, "ID": "0008636535", "NAME": "SOUTH BALDWIN REGIONAL MEDICAL CENTER", "ZIP": "36535", "TYPE": "GENERAL ACUTE CARE", "STATUS": "OPEN", "POPULATION": 112, "BEDS": 112, "TRAUMA": "III", "HELIPAD": "Y" }, "geometry": { "type": "Point", "coordinates": [ -87.684685646999981, 30.425835684000049 ] } },
{ "type": "Feature", "properties": { "OBJECTID": 14585, "ID": "0000436693", "NAME": "BAYPOINTE BEHAVIORAL HEALTH", "ZIP": "36693", "TYPE": "PSYCHIATRIC", "STATUS": "OPEN", "POPULATION": 60, "BEDS": 60, "TRAUMA": "NOT AVAILABLE", "HELIPAD": "NOT AVAILABLE" }, "geometry": { "type": "Point", "coordinates": [ -88.178008124999963, 30.624808491000067 ] } },
{ "type": "Feature", "properties": { "OBJECTID": 14586, "ID": "0008136202", "NAME": "NOLAND HOSPITAL ANNISTON", "ZIP": "36202", "TYPE": "LONG TERM CARE", "STATUS": "OPEN", "POPULATION": 38, "BEDS": 38, "TRAUMA": "III", "HELIPAD": "Y" }, "geometry": { "type": "Point", "coordinates": [ -85.823239615999967, 33.65565519300003 ] } },
{ "type": "Feature", "properties": { "OBJECTID": 14587, "ID": "0091636202", "NAME": "NORTHEAST ALABAMA REGIONAL MEDICAL CENTER", "ZIP": "36202", "TYPE": "GENERAL ACUTE CARE", "STATUS": "OPEN", "POPULATION": 323, "BEDS": 323, "TRAUMA": "NOT AVAILABLE", "HELIPAD": "NOT AVAILABLE" }, "geometry": { "type": "Point", "coordinates": [ -85.823242138999944, 33.655575256000077 ] } },
{ "type": "Feature", "properties": { "OBJECTID": 14588, "ID": "0001535611", "NAME": "ATHENS LIMESTONE HOSPITAL", "ZIP": "35611", "TYPE": "GENERAL ACUTE CARE", "STATUS": "OPEN", "POPULATION": 71, "BEDS": 71, "TRAUMA": "III", "HELIPAD": "NOT AVAILABLE" }, "geometry": { "type": "Point", "coordinates": [ -86.978407207999965, 34.804163930000072 ] } },
{ "type": "Feature", "properties": { "OBJECTID": 14589, "ID": "0009436507", "NAME": "NORTH BALDWIN INFIRMARY", "ZIP": "36507", "TYPE": "GENERAL ACUTE CARE", "STATUS": "OPEN", "POPULATION": 70, "BEDS": 70, "TRAUMA": "III", "HELIPAD": "Y" }, "geometry": { "type": "Point", "coordinates": [ -87.785022495999954, 30.90393436200003 ] } },
{ "type": "Feature", "properties": { "OBJECTID": 14591, "ID": "0000535259", "NAME": "BROOKWOOD MEDICAL CENTER", "ZIP": "35259", "TYPE": "GENERAL ACUTE CARE", "STATUS": "OPEN", "POPULATION": 607, "BEDS": 607, "TRAUMA": "III", "HELIPAD": "Y" }, "geometry": { "type": "Point", "coordinates": [ -86.776253388999976, 33.463730942000041 ] } },
{ "type": "Feature", "properties": { "OBJECTID": 14592, "ID": "0000735233", "NAME": "CHILDREN'S HOSPITAL OF ALABAMA", "ZIP": "35233", "TYPE": "CHILDREN", "STATUS": "OPEN", "POPULATION": 332, "BEDS": 332, "TRAUMA": "I", "HELIPAD": "Y" }, "geometry": { "type": "Point", "coordinates": [ -86.805159139999944, 33.504048154000031 ] } },
{ "type": "Feature", "properties": { "OBJECTID": 14593, "ID": "0005835209", "NAME": "HEALTHSOUTH LAKESHORE REHABILITATION HOSPITAL", "ZIP": "35209", "TYPE": "REHABILITATION", "STATUS": "OPEN", "POPULATION": 100, "BEDS": 100, "TRAUMA": "NOT AVAILABLE", "HELIPAD": "NOT AVAILABLE" }, "geometry": { "type": "Point", "coordinates": [ -86.788334988999964, 33.469115849000048 ] } },
{ "type": "Feature", "properties": { "OBJECTID": 14594, "ID": "0002935212", "NAME": "HILL CREST BEHAVIORAL HEALTH SERVICES", "ZIP": "35212", "TYPE": "PSYCHIATRIC", "STATUS": "OPEN", "POPULATION": 94, "BEDS": 94, "TRAUMA": "NOT AVAILABLE", "HELIPAD": "NOT AVAILABLE" }, "geometry": { "type": "Point", "coordinates": [ -86.73018329599995, 33.548834284000066 ] } },
{ "type": "Feature", "properties": { "OBJECTID": 14595, "ID": "0009235261", "NAME": "NOLAND HOSPITAL BIRMINGHAM", "ZIP": "35261", "TYPE": "LONG TERM CARE", "STATUS": "OPEN", "POPULATION": 45, "BEDS": 45, "TRAUMA": "NOT AVAILABLE", "HELIPAD": "NOT AVAILABLE" }, "geometry": { "type": "Point", "coordinates": [ -86.686022062999939, 33.41491921000005 ] } },
{ "type": "Feature", "properties": { "OBJECTID": 14596, "ID": "0008535213", "NAME": "SELECT SPECIALTY HOSPITAL-BIRMINGHAM", "ZIP": "35213", "TYPE": "GENERAL ACUTE CARE", "STATUS": "OPEN", "POPULATION": 38, "BEDS": 38, "TRAUMA": "NOT AVAILABLE", "HELIPAD": "Y" }, "geometry": { "type": "Point", "coordinates": [ -86.777332620999971, 33.464103937000061 ] } },
{ "type": "Feature", "properties": { "OBJECTID": 14597, "ID": "0008935205", "NAME": "ST. VINCENT'S BIRMINGHAM", "ZIP": "35205", "TYPE": "GENERAL ACUTE CARE", "STATUS": "OPEN", "POPULATION": 409, "BEDS": 409, "TRAUMA": "III", "HELIPAD": "NOT AVAILABLE" }, "geometry": { "type": "Point", "coordinates": [ -86.789121530999978, 33.507477169000026 ] } },
{ "type": "Feature", "properties": { "OBJECTID": 14598, "ID": "0009035235", "NAME": "ST. VINCENT'S EAST", "ZIP": "35235", "TYPE": "GENERAL ACUTE CARE", "STATUS": "OPEN", "POPULATION": 362, "BEDS": 362, "TRAUMA": "III", "HELIPAD": "Y" }, "geometry": { "type": "Point", "coordinates": [ -86.667611018999935, 33.596154515000023 ] } },
{ "type": "Feature", "properties": { "OBJECTID": 14599, "ID": "0011935233", "NAME": "UNIVERSITY OF ALABAMA HOSPITAL", "ZIP": "35233", "TYPE": "GENERAL ACUTE CARE", "STATUS": "OPEN", "POPULATION": 1157, "BEDS": 1157, "TRAUMA": "I", "HELIPAD": "Y" }, "geometry": { "type": "Point", "coordinates": [ -86.802035396999941, 33.505603292000046 ] } },
{ "type": "Feature", "properties": { "OBJECTID": 14600, "ID": "0009135957", "NAME": "MARSHALL MEDICAL CENTER SOUTH", "ZIP": "35957", "TYPE": "GENERAL ACUTE CARE", "STATUS": "OPEN", "POPULATION": 150, "BEDS": 150, "TRAUMA": "III", "HELIPAD": "Y" }, "geometry": { "type": "Point", "coordinates": [ -86.16062816799996, 34.221465850000072 ] } },
{ "type": "Feature", "properties": { "OBJECTID": 14601, "ID": "0003836427", "NAME": "D. W. MCMILLAN MEMORIAL HOSPITAL", "ZIP": "36427", "TYPE": "GENERAL ACUTE CARE", "STATUS": "OPEN", "POPULATION": 91, "BEDS": 91, "TRAUMA": "III", "HELIPAD": "Y" }, "geometry": { "type": "Point", "coordinates": [ -87.073499303999938, 31.127033909000033 ] } },
{ "type": "Feature", "properties": { "OBJECTID": 14602, "ID": "0006436726", "NAME": "J. PAUL JONES HOSPITAL", "ZIP": "36726", "TYPE": "GENERAL ACUTE CARE", "STATUS": "OPEN", "POPULATION": 30, "BEDS": 30, "TRAUMA": "NOT AVAILABLE", "HELIPAD": "NOT AVAILABLE" }, "geometry": { "type": "Point", "coordinates": [ -87.300257835999957, 31.997525148000079 ] } },
{ "type": "Feature", "properties": { "OBJECTID": 14603, "ID": "0009635447", "NAME": "PICKENS COUNTY MEDICAL CENTER", "ZIP": "35447", "TYPE": "GENERAL ACUTE CARE", "STATUS": "OPEN", "POPULATION": 56, "BEDS": 56, "TRAUMA": "NOT AVAILABLE", "HELIPAD": "NOT AVAILABLE" }, "geometry": { "type": "Point", "coordinates": [ -88.088635747999945, 33.274475670000072 ] } },
{ "type": "Feature", "properties": { "OBJECTID": 14604, "ID": "0002035042", "NAME": "BIBB MEDICAL CENTER", "ZIP": "35042", "TYPE": "GENERAL ACUTE CARE", "STATUS": "OPEN", "POPULATION": 35, "BEDS": 35, "TRAUMA": "NOT AVAILABLE", "HELIPAD": "Y" }, "geometry": { "type": "Point", "coordinates": [ -87.148311233999948, 32.951358366000079 ] } },
{ "type": "Feature", "properties": { "OBJECTID": 14605, "ID": "0012236518", "NAME": "WASHINGTON COUNTY HOSPITAL", "ZIP": "36518", "TYPE": "CRITICAL ACCESS", "STATUS": "OPEN", "POPULATION": 25, "BEDS": 25, "TRAUMA": "NOT AVAILABLE", "HELIPAD": "NOT AVAILABLE" }, "geometry": { "type": "Point", "coordinates": [ -88.235079892999977, 31.459538148000036 ] } },
{ "type": "Feature", "properties": { "OBJECTID": 14606, "ID": "0091836732", "NAME": "BRYAN W. WHITFIELD MEMORIAL HOSPITAL", "ZIP": "36732", "TYPE": "GENERAL ACUTE CARE", "STATUS": "OPEN", "POPULATION": 99, "BEDS": 99, "TRAUMA": "NOT AVAILABLE", "HELIPAD": "NOT AVAILABLE" }, "geometry": { "type": "Point", "coordinates": [ -87.836398799999984, 32.504788531000031 ] } },
{ "type": "Feature", "properties": { "OBJECTID": 14607, "ID": "0004236301", "NAME": "LAUREL OAKS BEHAVIORAL HEALTH CENTER", "ZIP": "36301", "TYPE": "PSYCHIATRIC", "STATUS": "OPEN", "POPULATION": 38, "BEDS": 38, "TRAUMA": "NOT AVAILABLE", "HELIPAD": "NOT AVAILABLE" }, "geometry": { "type": "Point", "coordinates": [ -85.384601115999942, 31.203815637000048 ] } },
{ "type": "Feature", "properties": { "OBJECTID": 14608, "ID": "0091336302", "NAME": "NOLAND HOSPITAL DOTHAN, LLC", "ZIP": "36302", "TYPE": "LONG TERM CARE", "STATUS": "OPEN", "POPULATION": 38, "BEDS": 38, "TRAUMA": "NOT AVAILABLE", "HELIPAD": "NOT AVAILABLE" }, "geometry": { "type": "Point", "coordinates": [ -85.362944209999966, 31.216289171000028 ] } },
{ "type": "Feature", "properties": { "OBJECTID": 14609, "ID": "0005336330", "NAME": "MEDICAL CENTER ENTERPRISE", "ZIP": "36330", "TYPE": "GENERAL ACUTE CARE", "STATUS": "OPEN", "POPULATION": 131, "BEDS": 131, "TRAUMA": "III", "HELIPAD": "NOT AVAILABLE" }, "geometry": { "type": "Point", "coordinates": [ -85.855369738999968, 31.318772396000043 ] } },
{ "type": "Feature", "properties": { "OBJECTID": 14610, "ID": "0004636401", "NAME": "EVERGREEN MEDICAL CENTER", "ZIP": "36401", "TYPE": "GENERAL ACUTE CARE", "STATUS": "OPEN", "POPULATION": 58, "BEDS": 58, "TRAUMA": "NOT AVAILABLE", "HELIPAD": "Y" }, "geometry": { "type": "Point", "coordinates": [ -86.94048358699996, 31.430798572000072 ] } },
{ "type": "Feature", "properties": { "OBJECTID": 14611, "ID": "0004835555", "NAME": "FAYETTE MEDICAL CENTER", "ZIP": "35555", "TYPE": "GENERAL ACUTE CARE", "STATUS": "OPEN", "POPULATION": 61, "BEDS": 61, "TRAUMA": "NOT AVAILABLE", "HELIPAD": "Y" }, "geometry": { "type": "Point", "coordinates": [ -87.824688981999941, 33.70817814000003 ] } },
{ "type": "Feature", "properties": { "OBJECTID": 14612, "ID": "0008035904", "NAME": "MOUNTAIN VIEW HOSPITAL", "ZIP": "35904", "TYPE": "PSYCHIATRIC", "STATUS": "OPEN", "POPULATION": 68, "BEDS": 68, "TRAUMA": "NOT AVAILABLE", "HELIPAD": "NOT AVAILABLE" }, "geometry": { "type": "Point", "coordinates": [ -86.019766068999957, 34.072425745000032 ] } },
{ "type": "Feature", "properties": { "OBJECTID": 14613, "ID": "0010836340", "NAME": "WIREGRASS MEDICAL CENTER", "ZIP": "36340", "TYPE": "GENERAL ACUTE CARE", "STATUS": "OPEN", "POPULATION": 83, "BEDS": 83, "TRAUMA": "NOT AVAILABLE", "HELIPAD": "Y" }, "geometry": { "type": "Point", "coordinates": [ -85.892536691999965, 31.048793989000046 ] } },
{ "type": "Feature", "properties": { "OBJECTID": 14614, "ID": "0010335999", "NAME": "RIVERVIEW REGIONAL MEDICAL CENTER", "ZIP": "35999", "TYPE": "GENERAL ACUTE CARE", "STATUS": "OPEN", "POPULATION": 281, "BEDS": 281, "TRAUMA": "III", "HELIPAD": "NOT AVAILABLE" }, "geometry": { "type": "Point", "coordinates": [ -86.003427059999979, 34.00432554300005 ] } },
{ "type": "Feature", "properties": { "OBJECTID": 14615, "ID": "0004036037", "NAME": "L. V. STABLER MEMORIAL HOSPITAL", "ZIP": "36037", "TYPE": "GENERAL ACUTE CARE", "STATUS": "OPEN", "POPULATION": 72, "BEDS": 72, "TRAUMA": "III", "HELIPAD": "Y" }, "geometry": { "type": "Point", "coordinates": [ -86.646364201999972, 31.829034402000048 ] } },
{ "type": "Feature", "properties": { "OBJECTID": 14616, "ID": "0005736744", "NAME": "HALE COUNTY HOSPITAL", "ZIP": "36744", "TYPE": "GENERAL ACUTE CARE", "STATUS": "OPEN", "POPULATION": 39, "BEDS": 39, "TRAUMA": "NOT AVAILABLE", "HELIPAD": "NOT AVAILABLE" }, "geometry": { "type": "Point", "coordinates": [ -87.58693419399998, 32.695372236000026 ] } },
{ "type": "Feature", "properties": { "OBJECTID": 14617, "ID": "0008435801", "NAME": "CRESTWOOD MEDICAL CENTER", "ZIP": "35801", "TYPE": "GENERAL ACUTE CARE", "STATUS": "OPEN", "POPULATION": 147, "BEDS": 147, "TRAUMA": "III", "HELIPAD": "NOT AVAILABLE" }, "geometry": { "type": "Point", "coordinates": [ -86.572171542999968, 34.693611397000041 ] } },
{ "type": "Feature", "properties": { "OBJECTID": 14618, "ID": "0001935806", "NAME": "BEHAVIORAL HEALTHCARE CENTER AT HUNTSVILLE, INC.", "ZIP": "35806", "TYPE": "PSYCHIATRIC", "STATUS": "OPEN", "POPULATION": 20, "BEDS": 20, "TRAUMA": "NOT AVAILABLE", "HELIPAD": "NOT AVAILABLE" }, "geometry": { "type": "Point", "coordinates": [ -86.665696353999977, 34.753170240000031 ] } },
{ "type": "Feature", "properties": { "OBJECTID": 14620, "ID": "0006335801", "NAME": "HUNTSVILLE HOSPITAL, THE", "ZIP": "35801", "TYPE": "GENERAL ACUTE CARE", "STATUS": "OPEN", "POPULATION": 881, "BEDS": 881, "TRAUMA": "I", "HELIPAD": "Y" }, "geometry": { "type": "Point", "coordinates": [ -86.580805508999958, 34.721433099000024 ] } },
{ "type": "Feature", "properties": { "OBJECTID": 14621, "ID": "0006736545", "NAME": "JACKSON MEDICAL CENTER", "ZIP": "36545", "TYPE": "GENERAL ACUTE CARE", "STATUS": "OPEN", "POPULATION": 35, "BEDS": 35, "TRAUMA": "III", "HELIPAD": "Y" }, "geometry": { "type": "Point", "coordinates": [ -87.895134563999989, 31.531068460000029 ] } },
{ "type": "Feature", "properties": { "OBJECTID": 14622, "ID": "0006836265", "NAME": "RMC JACKSONVILLE", "ZIP": "36265", "TYPE": "GENERAL ACUTE CARE", "STATUS": "OPEN", "POPULATION": 104, "BEDS": 104, "TRAUMA": "NOT AVAILABLE", "HELIPAD": "NOT AVAILABLE" }, "geometry": { "type": "Point", "coordinates": [ -85.763550789999954, 33.784932246000039 ] } },
{ "type": "Feature", "properties": { "OBJECTID": 14623, "ID": "0012035502", "NAME": "WALKER BAPTIST MEDICAL CENTER", "ZIP": "35502", "TYPE": "GENERAL ACUTE CARE", "STATUS": "OPEN", "POPULATION": 267, "BEDS": 267, "TRAUMA": "III", "HELIPAD": "Y" }, "geometry": { "type": "Point", "coordinates": [ -87.235999581999977, 33.842728904000069 ] } },
{ "type": "Feature", "properties": { "OBJECTID": 14624, "ID": "0003536049", "NAME": "CRENSHAW COMMUNITY HOSPITAL", "ZIP": "36049", "TYPE": "GENERAL ACUTE CARE", "STATUS": "OPEN", "POPULATION": 65, "BEDS": 65, "TRAUMA": "NOT AVAILABLE", "HELIPAD": "Y" }, "geometry": { "type": "Point", "coordinates": [ -86.265045700999963, 31.693544069000041 ] } },
{ "type": "Feature", "properties": { "OBJECTID": 14625, "ID": "0013636652", "NAME": "MOBILE INFIRMARY MEDICAL CENTER", "ZIP": "36652", "TYPE": "GENERAL ACUTE CARE", "STATUS": "OPEN", "POPULATION": 677, "BEDS": 677, "TRAUMA": "III", "HELIPAD": "Y" }, "geometry": { "type": "Point", "coordinates": [ -88.07977619199994, 30.695724958000028 ] } },
{ "type": "Feature", "properties": { "OBJECTID": 14626, "ID": "0011136608", "NAME": "SPRINGHILL MEMORIAL HOSPITAL", "ZIP": "36608", "TYPE": "GENERAL ACUTE CARE", "STATUS": "OPEN", "POPULATION": 263, "BEDS": 263, "TRAUMA": "III", "HELIPAD": "Y" }, "geometry": { "type": "Point", "coordinates": [ -88.131336290999968, 30.68451748800004 ] } },
{ "type": "Feature", "properties": { "OBJECTID": 14627, "ID": "0001736111", "NAME": "BAPTIST MEDICAL CENTER SOUTH", "ZIP": "36111", "TYPE": "GENERAL ACUTE CARE", "STATUS": "OPEN", "POPULATION": 454, "BEDS": 454, "TRAUMA": "II", "HELIPAD": "Y" }, "geometry": { "type": "Point", "coordinates": [ -86.277549349999958, 32.328153948000079 ] } },
{ "type": "Feature", "properties": { "OBJECTID": 14628, "ID": "0002336116", "NAME": "HEALTHSOUTH REHABILITATION HOSPITAL OF MONTGOMERY", "ZIP": "36116", "TYPE": "REHABILITATION", "STATUS": "OPEN", "POPULATION": 70, "BEDS": 70, "TRAUMA": "NOT AVAILABLE", "HELIPAD": "NOT AVAILABLE" }, "geometry": { "type": "Point", "coordinates": [ -86.280709802999979, 32.319106982000051 ] } },
{ "type": "Feature", "properties": { "OBJECTID": 14629, "ID": "0006636106", "NAME": "JACKSON HOSPITAL AND CLINIC", "ZIP": "36106", "TYPE": "GENERAL ACUTE CARE", "STATUS": "OPEN", "POPULATION": 344, "BEDS": 344, "TRAUMA": "NOT AVAILABLE", "HELIPAD": "NOT AVAILABLE" }, "geometry": { "type": "Point", "coordinates": [ -86.28538554499994, 32.366952996000066 ] } },
{ "type": "Feature", "properties": { "OBJECTID": 14630, "ID": "0091436106", "NAME": "NOLAND HOSPITAL MONTGOMERY, LLC", "ZIP": "36106", "TYPE": "LONG TERM CARE", "STATUS": "OPEN", "POPULATION": 65, "BEDS": 65, "TRAUMA": "III", "HELIPAD": "NOT AVAILABLE" }, "geometry": { "type": "Point", "coordinates": [ -86.285790052999971, 32.366969330000074 ] } },
{ "type": "Feature", "properties": { "OBJECTID": 14631, "ID": "0005636467", "NAME": "MIZELL MEMORIAL HOSPITAL", "ZIP": "36467", "TYPE": "GENERAL ACUTE CARE", "STATUS": "OPEN", "POPULATION": 99, "BEDS": 99, "TRAUMA": "III", "HELIPAD": "NOT AVAILABLE" }, "geometry": { "type": "Point", "coordinates": [ -86.254526922999958, 31.291958238000063 ] } },
{ "type": "Feature", "properties": { "OBJECTID": 14632, "ID": "0000836360", "NAME": "DALE MEDICAL CENTER", "ZIP": "36360", "TYPE": "GENERAL ACUTE CARE", "STATUS": "OPEN", "POPULATION": 89, "BEDS": 89, "TRAUMA": "III", "HELIPAD": "Y" }, "geometry": { "type": "Point", "coordinates": [ -85.632088034999981, 31.451576655000054 ] } },
{ "type": "Feature", "properties": { "OBJECTID": 14633, "ID": "0011635125", "NAME": "ST. VINCENT'S ST.CLAIR", "ZIP": "35125", "TYPE": "GENERAL ACUTE CARE", "STATUS": "OPEN", "POPULATION": 40, "BEDS": 40, "TRAUMA": "NOT AVAILABLE", "HELIPAD": "NOT AVAILABLE" }, "geometry": { "type": "Point", "coordinates": [ -86.277469101999941, 33.605110768000031 ] } },
{ "type": "Feature", "properties": { "OBJECTID": 14634, "ID": "0010235582", "NAME": "RED BAY HOSPITAL", "ZIP": "35582", "TYPE": "CRITICAL ACCESS", "STATUS": "OPEN", "POPULATION": 25, "BEDS": 25, "TRAUMA": "NOT AVAILABLE", "HELIPAD": "NOT AVAILABLE" }, "geometry": { "type": "Point", "coordinates": [ -88.147325061999936, 34.458105759000034 ] } },
{ "type": "Feature", "properties": { "OBJECTID": 14635, "ID": "0010535653", "NAME": "RUSSELLVILLE HOSPITAL", "ZIP": "35653", "TYPE": "GENERAL ACUTE CARE", "STATUS": "OPEN", "POPULATION": 100, "BEDS": 100, "TRAUMA": "III", "HELIPAD": "Y" }, "geometry": { "type": "Point", "coordinates": [ -87.718386066999983, 34.510818119000078 ] } },
{ "type": "Feature", "properties": { "OBJECTID": 14636, "ID": "0006135768", "NAME": "HIGHLANDS MEDICAL CENTER", "ZIP": "35768", "TYPE": "GENERAL ACUTE CARE", "STATUS": "OPEN", "POPULATION": 170, "BEDS": 170, "TRAUMA": "III", "HELIPAD": "Y" }, "geometry": { "type": "Point", "coordinates": [ -86.047490795999977, 34.662037933000079 ] } },
{ "type": "Feature", "properties": { "OBJECTID": 14637, "ID": "0009936701", "NAME": "VAUGHAN REGIONAL MEDICAL CENTER-PARKWAY CAMPUS", "ZIP": "36701", "TYPE": "GENERAL ACUTE CARE", "STATUS": "OPEN", "POPULATION": 175, "BEDS": 175, "TRAUMA": "NOT AVAILABLE", "HELIPAD": "Y" }, "geometry": { "type": "Point", "coordinates": [ -87.055973045999963, 32.429465213000071 ] } },
{ "type": "Feature", "properties": { "OBJECTID": 14638, "ID": "0006035660", "NAME": "HELEN KELLER MEMORIAL HOSPITAL", "ZIP": "35660", "TYPE": "GENERAL ACUTE CARE", "STATUS": "OPEN", "POPULATION": 185, "BEDS": 185, "TRAUMA": "NOT AVAILABLE", "HELIPAD": "Y" }, "geometry": { "type": "Point", "coordinates": [ -87.700261460999968, 34.745950151000045 ] } },
{ "type": "Feature", "properties": { "OBJECTID": 14639, "ID": "0003435150", "NAME": "COOSA VALLEY MEDICAL CENTER", "ZIP": "35150", "TYPE": "GENERAL ACUTE CARE", "STATUS": "OPEN", "POPULATION": 163, "BEDS": 163, "TRAUMA": "III", "HELIPAD": "NOT AVAILABLE" }, "geometry": { "type": "Point", "coordinates": [ -86.255487581999944, 33.164560226000049 ] } },
{ "type": "Feature", "properties": { "OBJECTID": 14640, "ID": "0003035161", "NAME": "CITIZENS BAPTIST MEDICAL CENTER", "ZIP": "35161", "TYPE": "GENERAL ACUTE CARE", "STATUS": "OPEN", "POPULATION": 122, "BEDS": 122, "TRAUMA": "III", "HELIPAD": "Y" }, "geometry": { "type": "Point", "coordinates": [ -86.090783395999949, 33.440276821000054 ] } },
{ "type": "Feature", "properties": { "OBJECTID": 14642, "ID": "0090535401", "NAME": "NOLAND HOSPITAL TUSCALOOSA, LLC", "ZIP": "35401", "TYPE": "LONG TERM CARE", "STATUS": "OPEN", "POPULATION": -999, "BEDS": 32, "TRAUMA": "NOT AVAILABLE", "HELIPAD": "NOT AVAILABLE" }, "geometry": { "type": "Point", "coordinates": [ -87.526364376999936, 33.205174448000037 ] } },
{ "type": "Feature", "properties": { "OBJECTID": 14645, "ID": "0008236089", "NAME": "BULLOCK COUNTY HOSPITAL", "ZIP": "36089", "TYPE": "GENERAL ACUTE CARE", "STATUS": "OPEN", "POPULATION": 61, "BEDS": 61, "TRAUMA": "NOT AVAILABLE", "HELIPAD": "NOT AVAILABLE" }, "geometry": { "type": "Point", "coordinates": [ -85.717009325999982, 32.146635109000044 ] } },
{ "type": "Feature", "properties": { "OBJECTID": 14646, "ID": "0004536092", "NAME": "ELMORE COMMUNITY HOSPITAL", "ZIP": "36092", "TYPE": "GENERAL ACUTE CARE", "STATUS": "OPEN", "POPULATION": 69, "BEDS": 69, "TRAUMA": "NOT AVAILABLE", "HELIPAD": "NOT AVAILABLE" }, "geometry": { "type": "Point", "coordinates": [ -86.186396445999947, 32.552266972000041 ] } },
{ "type": "Feature", "properties": { "OBJECTID": 14647, "ID": "0006236925", "NAME": "HILL HOSPITAL OF SUMTER COUNTY", "ZIP": "36925", "TYPE": "GENERAL ACUTE CARE", "STATUS": "OPEN", "POPULATION": 33, "BEDS": 33, "TRAUMA": "NOT AVAILABLE", "HELIPAD": "NOT AVAILABLE" }, "geometry": { "type": "Point", "coordinates": [ -88.29552376099997, 32.491994222000073 ] } },
{ "type": "Feature", "properties": { "OBJECTID": 14648, "ID": "0000606904", "NAME": "STAMFORD HOSPITAL", "ZIP": "06904", "TYPE": "GENERAL ACUTE CARE", "STATUS": "OPEN", "POPULATION": 305, "BEDS": 305, "TRAUMA": "II", "HELIPAD": "NOT AVAILABLE" }, "geometry": { "type": "Point", "coordinates": [ -73.553125076999947, 41.055016685000055 ] } },
{ "type": "Feature", "properties": { "OBJECTID": 14649, "ID": "0002706856", "NAME": "NORWALK HOSPITAL", "ZIP": "06856", "TYPE": "GENERAL ACUTE CARE", "STATUS": "OPEN", "POPULATION": 328, "BEDS": 328, "TRAUMA": "II", "HELIPAD": "Y" }, "geometry": { "type": "Point", "coordinates": [ -73.422623624999972, 41.111596648000045 ] } },
{ "type": "Feature", "properties": { "OBJECTID": 14651, "ID": "0008946176", "NAME": "MAJOR HOSPITAL", "ZIP": "46176", "TYPE": "GENERAL ACUTE CARE", "STATUS": "CLOSED", "POPULATION": 72, "BEDS": 72, "TRAUMA": "NOT AVAILABLE", "HELIPAD": "NOT AVAILABLE" }, "geometry": { "type": "Point", "coordinates": [ -85.781051464999962, 39.525273383000069 ] } },
{ "type": "Feature", "properties": { "OBJECTID": 14652, "ID": "0012346545", "NAME": "MEDICAL BEHAVIORAL HOSPITAL - MISHAWAKA", "ZIP": "46545", "TYPE": "LONG TERM CARE", "STATUS": "OPEN", "POPULATION": 30, "BEDS": 30, "TRAUMA": "NOT AVAILABLE", "HELIPAD": "NOT AVAILABLE" }, "geometry": { "type": "Point", "coordinates": [ -86.158872751999979, 41.671248352000077 ] } },
{ "type": "Feature", "properties": { "OBJECTID": 14653, "ID": "0016746222", "NAME": "COMMUNITY WESTVIEW HOSPITAL", "ZIP": "46222", "TYPE": "GENERAL ACUTE CARE", "STATUS": "CLOSED", "POPULATION": 68, "BEDS": 68, "TRAUMA": "NOT AVAILABLE", "HELIPAD": "NOT AVAILABLE" }, "geometry": { "type": "Point", "coordinates": [ -86.222438395999973, 39.820940711000048 ] } },
{ "type": "Feature", "properties": { "OBJECTID": 14654, "ID": "0156246802", "NAME": "SELECT SPECIALTY HOSPITAL-FORT WAYNE", "ZIP": "46802", "TYPE": "LONG TERM CARE", "STATUS": "CLOSED", "POPULATION": -999, "BEDS": 32, "TRAUMA": "NOT AVAILABLE", "HELIPAD": "NOT AVAILABLE" }, "geometry": { "type": "Point", "coordinates": [ -85.149166007999952, 41.078295523000065 ] } },
{ "type": "Feature", "properties": { "OBJECTID": 14655, "ID": "0167684205", "NAME": "STRATEGIC BEHAVIORAL CENTER LELAND", "ZIP": "28451", "TYPE": "PSYCHIATRIC", "STATUS": "OPEN", "POPULATION": 112, "BEDS": 112, "TRAUMA": "NOT AVAILABLE", "HELIPAD": "N" }, "geometry": { "type": "Point", "coordinates": [ -78.063713705999987, 34.26075781000003 ] } },
{ "type": "Feature", "properties": { "OBJECTID": 14658, "ID": "0167684104", "NAME": "BEHAVIORAL HEALTH HOSPITAL", "ZIP": "27403", "TYPE": "PSYCHIATRIC", "STATUS": "OPEN", "POPULATION": 80, "BEDS": 80, "TRAUMA": "NOT AVAILABLE", "HELIPAD": "N" }, "geometry": { "type": "Point", "coordinates": [ -79.822456151999972, 36.082795504000046 ] } },
{ "type": "Feature", "properties": { "OBJECTID": 14659, "ID": "0167684227", "NAME": "WOMEN'S HOSPITAL", "ZIP": "27408", "TYPE": "WOMEN", "STATUS": "OPEN", "POPULATION": 134, "BEDS": 134, "TRAUMA": "NOT AVAILABLE", "HELIPAD": "N" }, "geometry": { "type": "Point", "coordinates": [ -79.817863791999969, 36.092908213000044 ] } },
{ "type": "Feature", "properties": { "OBJECTID": 14660, "ID": "0167684136", "NAME": "GOOD HOPE HOSPITAL", "ZIP": "28339", "TYPE": "PSYCHIATRIC", "STATUS": "OPEN", "POPULATION": 16, "BEDS": 16, "TRAUMA": "NOT AVAILABLE", "HELIPAD": "N" }, "geometry": { "type": "Point", "coordinates": [ -78.669802887999936, 35.327363247000051 ] } },
{ "type": "Feature", "properties": { "OBJECTID": 14661, "ID": "0007628721", "NAME": "HAYWOOD REGIONAL MEDICAL CENTER", "ZIP": "28721", "TYPE": "GENERAL ACUTE CARE", "STATUS": "OPEN", "POPULATION": 190, "BEDS": 190, "TRAUMA": "NOT AVAILABLE", "HELIPAD": "Y" }, "geometry": { "type": "Point", "coordinates": [ -82.942508883999949, 35.525381277000065 ] } },
{ "type": "Feature", "properties": { "OBJECTID": 14662, "ID": "0008928503", "NAME": "UNC LENOIR HEALTH CARE", "ZIP": "28503", "TYPE": "GENERAL ACUTE CARE", "STATUS": "OPEN", "POPULATION": 261, "BEDS": 261, "TRAUMA": "NOT AVAILABLE", "HELIPAD": "Y" }, "geometry": { "type": "Point", "coordinates": [ -77.583282811999936, 35.290340626000045 ] } },
{ "type": "Feature", "properties": { "OBJECTID": 14663, "ID": "0012528210", "NAME": "CAROLINAS HEALTHCARE SYSTEM PINEVILLE", "ZIP": "28210", "TYPE": "GENERAL ACUTE CARE", "STATUS": "OPEN", "POPULATION": 206, "BEDS": 206, "TRAUMA": "NOT AVAILABLE", "HELIPAD": "Y" }, "geometry": { "type": "Point", "coordinates": [ -80.871618186999967, 35.092012183000065 ] } },
{ "type": "Feature", "properties": { "OBJECTID": 14664, "ID": "0004528256", "NAME": "CAROLINAS HEALTHCARE SYSTEM UNIVERSITY", "ZIP": "28256", "TYPE": "GENERAL ACUTE CARE", "STATUS": "OPEN", "POPULATION": 100, "BEDS": 100, "TRAUMA": "NOT AVAILABLE", "HELIPAD": "Y" }, "geometry": { "type": "Point", "coordinates": [ -80.747047941999938, 35.306757427000036 ] } },
{ "type": "Feature", "properties": { "OBJECTID": 14665, "ID": "0167684203", "NAME": "STRATEGIC BEHAVIORAL CENTER CHARLOTTE", "ZIP": "28210", "TYPE": "PSYCHIATRIC", "STATUS": "OPEN", "POPULATION": 60, "BEDS": 60, "TRAUMA": "NOT AVAILABLE", "HELIPAD": "N" }, "geometry": { "type": "Point", "coordinates": [ -80.871603917999948, 35.120856697000079 ] } },
{ "type": "Feature", "properties": { "OBJECTID": 14666, "ID": "0004628232", "NAME": "CAROLINAS MEDICAL CENTER", "ZIP": "28232", "TYPE": "GENERAL ACUTE CARE", "STATUS": "OPEN", "POPULATION": 1023, "BEDS": 1023, "TRAUMA": "LEVEL I", "HELIPAD": "Y" }, "geometry": { "type": "Point", "coordinates": [ -80.838901795999959, 35.203899886000045 ] } },
{ "type": "Feature", "properties": { "OBJECTID": 14667, "ID": "0167684110", "NAME": "CAROLINAS MEDICAL CENTER FOR MENTAL HEALTH", "ZIP": "28211", "TYPE": "PSYCHIATRIC", "STATUS": "OPEN", "POPULATION": 132, "BEDS": 132, "TRAUMA": "NOT AVAILABLE", "HELIPAD": "N" }, "geometry": { "type": "Point", "coordinates": [ -80.803893975999983, 35.192050170000073 ] } },
{ "type": "Feature", "properties": { "OBJECTID": 14668, "ID": "0005946278", "NAME": "ORTHOINDY HOSPITAL", "ZIP": "46278", "TYPE": "SPECIAL", "STATUS": "OPEN", "POPULATION": 38, "BEDS": 38, "TRAUMA": "NOT AVAILABLE", "HELIPAD": "NOT AVAILABLE" }, "geometry": { "type": "Point", "coordinates": [ -86.267216494999957, 39.907695425000043 ] } },
{ "type": "Feature", "properties": { "OBJECTID": 14669, "ID": "0156146250", "NAME": "SELECT SPECIALTY HOSPITAL- INDIANAPOLIS", "ZIP": "46250", "TYPE": "LONG TERM CARE", "STATUS": "OPEN", "POPULATION": 45, "BEDS": 45, "TRAUMA": "NOT AVAILABLE", "HELIPAD": "NOT AVAILABLE" }, "geometry": { "type": "Point", "coordinates": [ -86.060493488999953, 39.902117799000052 ] } },
{ "type": "Feature", "properties": { "OBJECTID": 14670, "ID": "0156747905", "NAME": "LAFAYETTE REGIONAL REHABILITATION HOSPITAL", "ZIP": "47905", "TYPE": "REHABILITATION", "STATUS": "OPEN", "POPULATION": 40, "BEDS": 40, "TRAUMA": "NOT AVAILABLE", "HELIPAD": "NOT AVAILABLE" }, "geometry": { "type": "Point", "coordinates": [ -86.830032685999981, 40.404630950000069 ] } },
{ "type": "Feature", "properties": { "OBJECTID": 14671, "ID": "0156946037", "NAME": "ST VINCENT FISHERS HOSPITAL INC", "ZIP": "46037", "TYPE": "GENERAL ACUTE CARE", "STATUS": "OPEN", "POPULATION": 46, "BEDS": 46, "TRAUMA": "NOT AVAILABLE", "HELIPAD": "NOT AVAILABLE" }, "geometry": { "type": "Point", "coordinates": [ -85.916601968999942, 39.989336055000081 ] } },
{ "type": "Feature", "properties": { "OBJECTID": 14672, "ID": "0157046032", "NAME": "FRANCISCAN ST FRANCIS HEALTH - CARMEL", "ZIP": "46032", "TYPE": "GENERAL ACUTE CARE", "STATUS": "OPEN", "POPULATION": 6, "BEDS": 6, "TRAUMA": "NOT AVAILABLE", "HELIPAD": "NOT AVAILABLE" }, "geometry": { "type": "Point", "coordinates": [ -86.158707018999962, 39.968032054000048 ] } },
{ "type": "Feature", "properties": { "OBJECTID": 14673, "ID": "0157146254", "NAME": "ESKENAZI HEALTH", "ZIP": "46254", "TYPE": "GENERAL ACUTE CARE", "STATUS": "OPEN", "POPULATION": 337, "BEDS": 337, "TRAUMA": "LEVEL I", "HELIPAD": "Y" }, "geometry": { "type": "Point", "coordinates": [ -86.183985885999959, 39.777882758000032 ] } },
{ "type": "Feature", "properties": { "OBJECTID": 14674, "ID": "0019046805", "NAME": "PARK CENTER, INC", "ZIP": "46805", "TYPE": "PSYCHIATRIC", "STATUS": "OPEN", "POPULATION": 16, "BEDS": 16, "TRAUMA": "NOT AVAILABLE", "HELIPAD": "NOT AVAILABLE" }, "geometry": { "type": "Point", "coordinates": [ -85.108482019999897, 41.09362543900005 ] } },
{ "type": "Feature", "properties": { "OBJECTID": 14675, "ID": "0015946804", "NAME": "THE ORTHOPAEDIC HOSPITAL OF LUTHERAN HEALTH NETWOR", "ZIP": "46804", "TYPE": "GENERAL ACUTE CARE", "STATUS": "OPEN", "POPULATION": 43, "BEDS": 43, "TRAUMA": "NOT AVAILABLE", "HELIPAD": "NOT AVAILABLE" }, "geometry": { "type": "Point", "coordinates": [ -85.239125427999966, 41.040284840000027 ] } },
{ "type": "Feature", "properties": { "OBJECTID": 14676, "ID": "0018946013", "NAME": "ASSURANCE HEALTH PSYCHIATRIC HOSPITAL", "ZIP": "46013", "TYPE": "PSYCHIATRIC", "STATUS": "OPEN", "POPULATION": 22, "BEDS": 22, "TRAUMA": "NOT AVAILABLE", "HELIPAD": "N" }, "geometry": { "type": "Point", "coordinates": [ -85.725053900999967, 40.037843886000076 ] } },
{ "type": "Feature", "properties": { "OBJECTID": 14677, "ID": "0156546202", "NAME": "INDIANA UNIVERSITY HEALTH", "ZIP": "46202", "TYPE": "GENERAL ACUTE CARE", "STATUS": "OPEN", "POPULATION": 1244, "BEDS": 1244, "TRAUMA": "LEVEL I", "HELIPAD": "Y" }, "geometry": { "type": "Point", "coordinates": [ -86.163100640999971, 39.789801115000046 ] } },
{ "type": "Feature", "properties": { "OBJECTID": 14678, "ID": "0013746904", "NAME": "ST JOSEPH HOSPITAL & HEALTH CENTER INC", "ZIP": "46904", "TYPE": "GENERAL ACUTE CARE", "STATUS": "OPEN", "POPULATION": 138, "BEDS": 138, "TRAUMA": "NOT AVAILABLE", "HELIPAD": "Y" }, "geometry": { "type": "Point", "coordinates": [ -86.15669477099999, 40.486080205000064 ] } },
{ "type": "Feature", "properties": { "OBJECTID": 14679, "ID": "0019247250", "NAME": "KING'S DAUGHTERS' HEALTH", "ZIP": "47250", "TYPE": "GENERAL ACUTE CARE", "STATUS": "OPEN", "POPULATION": 72, "BEDS": 72, "TRAUMA": "NOT AVAILABLE", "HELIPAD": "NOT AVAILABLE" }, "geometry": { "type": "Point", "coordinates": [ -85.364297964999935, 38.792507239000031 ] } },
{ "type": "Feature", "properties": { "OBJECTID": 14680, "ID": "0156446250", "NAME": "COMMUNITY HEALTH NETWORK REHABILITATION HOSPITAL", "ZIP": "46250", "TYPE": "REHABILITATION", "STATUS": "OPEN", "POPULATION": 60, "BEDS": 60, "TRAUMA": "NOT AVAILABLE", "HELIPAD": "NOT AVAILABLE" }, "geometry": { "type": "Point", "coordinates": [ -86.03791070799997, 39.898920937000071 ] } },
{ "type": "Feature", "properties": { "OBJECTID": 14681, "ID": "0009547303", "NAME": "MERIDIAN SERVICES CORP", "ZIP": "47303", "TYPE": "PSYCHIATRIC", "STATUS": "OPEN", "POPULATION": 16, "BEDS": 16, "TRAUMA": "NOT AVAILABLE", "HELIPAD": "Y" }, "geometry": { "type": "Point", "coordinates": [ -85.414812361999964, 40.196783483000047 ] } },
{ "type": "Feature", "properties": { "OBJECTID": 14682, "ID": "0012047374", "NAME": "REID HOSPITAL & HEALTH CARE SERVICES", "ZIP": "47374", "TYPE": "GENERAL ACUTE CARE", "STATUS": "OPEN", "POPULATION": 221, "BEDS": 221, "TRAUMA": "LEVEL III", "HELIPAD": "Y" }, "geometry": { "type": "Point", "coordinates": [ -84.884284516999969, 39.864710013000035 ] } },
{ "type": "Feature", "properties": { "OBJECTID": 14683, "ID": "0003546947", "NAME": "FOUR COUNTY COUNSELING CENTER", "ZIP": "46947", "TYPE": "PSYCHIATRIC", "STATUS": "OPEN", "POPULATION": 15, "BEDS": 15, "TRAUMA": "NOT AVAILABLE", "HELIPAD": "Y" }, "geometry": { "type": "Point", "coordinates": [ -86.362468224999986, 40.763290379000068 ] } },
{ "type": "Feature", "properties": { "OBJECTID": 14684, "ID": "0009246947", "NAME": "MEMORIAL HOSPITAL", "ZIP": "46947", "TYPE": "GENERAL ACUTE CARE", "STATUS": "OPEN", "POPULATION": 83, "BEDS": 83, "TRAUMA": "NOT AVAILABLE", "HELIPAD": "Y" }, "geometry": { "type": "Point", "coordinates": [ -86.362020319999942, 40.763478766000048 ] } },
{ "type": "Feature", "properties": { "OBJECTID": 14685, "ID": "0000947130", "NAME": "CLARK MEMORIAL HOSPITAL", "ZIP": "47130", "TYPE": "GENERAL ACUTE CARE", "STATUS": "OPEN", "POPULATION": 236, "BEDS": 236, "TRAUMA": "NOT AVAILABLE", "HELIPAD": "NOT AVAILABLE" }, "geometry": { "type": "Point", "coordinates": [ -85.748631848999935, 38.282255723000048 ] } },
{ "type": "Feature", "properties": { "OBJECTID": 14686, "ID": "0007947129", "NAME": "KENTUCKIANA MEDICAL CENTER LLC", "ZIP": "47129", "TYPE": "GENERAL ACUTE CARE", "STATUS": "OPEN", "POPULATION": 42, "BEDS": 42, "TRAUMA": "NOT AVAILABLE", "HELIPAD": "NOT AVAILABLE" }, "geometry": { "type": "Point", "coordinates": [ -85.752433814999961, 38.333085593000078 ] } },
{ "type": "Feature", "properties": { "OBJECTID": 14687, "ID": "0011246383", "NAME": "PORTER REGIONAL HOSPITAL", "ZIP": "46383", "TYPE": "GENERAL ACUTE CARE", "STATUS": "OPEN", "POPULATION": 301, "BEDS": 301, "TRAUMA": "NOT AVAILABLE", "HELIPAD": "NOT AVAILABLE" }, "geometry": { "type": "Point", "coordinates": [ -87.049681708999969, 41.553276759000028 ] } },
{ "type": "Feature", "properties": { "OBJECTID": 14688, "ID": "0010546761", "NAME": "PARKVIEW LAGRANGE HOSPITAL", "ZIP": "46761", "TYPE": "CRITICAL ACCESS", "STATUS": "OPEN", "POPULATION": 25, "BEDS": 25, "TRAUMA": "NOT AVAILABLE", "HELIPAD": "Y" }, "geometry": { "type": "Point", "coordinates": [ -85.426137056999949, 41.64580409000007 ] } },
{ "type": "Feature", "properties": { "OBJECTID": 14689, "ID": "0002846825", "NAME": "DUPONT HOSPITAL LLC", "ZIP": "46825", "TYPE": "GENERAL ACUTE CARE", "STATUS": "OPEN", "POPULATION": 131, "BEDS": 131, "TRAUMA": "NOT AVAILABLE", "HELIPAD": "Y" }, "geometry": { "type": "Point", "coordinates": [ -85.108930620999956, 41.175269160000028 ] } },
{ "type": "Feature", "properties": { "OBJECTID": 14690, "ID": "0008746804", "NAME": "LUTHERAN HOSPITAL OF INDIANA", "ZIP": "46804", "TYPE": "GENERAL ACUTE CARE", "STATUS": "OPEN", "POPULATION": 396, "BEDS": 396, "TRAUMA": "LEVEL II, PEDIACTRICS II", "HELIPAD": "Y" }, "geometry": { "type": "Point", "coordinates": [ -85.249849395999945, 41.039211687000034 ] } },
{ "type": "Feature", "properties": { "OBJECTID": 14691, "ID": "0010246845", "NAME": "ORTHOPAEDIC HOSPITAL AT PARKVIEW NORTH LLC", "ZIP": "46845", "TYPE": "GENERAL ACUTE CARE", "STATUS": "OPEN", "POPULATION": 37, "BEDS": 37, "TRAUMA": "NOT AVAILABLE", "HELIPAD": "NOT AVAILABLE" }, "geometry": { "type": "Point", "coordinates": [ -85.100669573999937, 41.189577579000058 ] } },
{ "type": "Feature", "properties": { "OBJECTID": 14692, "ID": "0010746805", "NAME": "PARKVIEW REGIONAL MEDICAL CENTER", "ZIP": "46805", "TYPE": "GENERAL ACUTE CARE", "STATUS": "OPEN", "POPULATION": 650, "BEDS": 650, "TRAUMA": "LEVEL II, PEDIACTRICS II", "HELIPAD": "Y" }, "geometry": { "type": "Point", "coordinates": [ -85.101793442999963, 41.18845198300005 ] } },
{ "type": "Feature", "properties": { "OBJECTID": 14693, "ID": "0000246733", "NAME": "ADAMS MEMORIAL HOSPITAL", "ZIP": "46733", "TYPE": "CRITICAL ACCESS", "STATUS": "OPEN", "POPULATION": 35, "BEDS": 35, "TRAUMA": "NOT AVAILABLE", "HELIPAD": "NOT AVAILABLE" }, "geometry": { "type": "Point", "coordinates": [ -84.914361670999938, 40.816222440000047 ] } },
{ "type": "Feature", "properties": { "OBJECTID": 14694, "ID": "0001047201", "NAME": "COLUMBUS REGIONAL HOSPITAL", "ZIP": "47201", "TYPE": "GENERAL ACUTE CARE", "STATUS": "OPEN", "POPULATION": 198, "BEDS": 198, "TRAUMA": "NOT AVAILABLE", "HELIPAD": "Y" }, "geometry": { "type": "Point", "coordinates": [ -85.895463791999987, 39.216952915000036 ] } },
{ "type": "Feature", "properties": { "OBJECTID": 14695, "ID": "0006447348", "NAME": "INDIANA UNIVERSITY HEALTH BLACKFORD HOSPITAL", "ZIP": "47348", "TYPE": "CRITICAL ACCESS", "STATUS": "OPEN", "POPULATION": 15, "BEDS": 15, "TRAUMA": "NOT AVAILABLE", "HELIPAD": "Y" }, "geometry": { "type": "Point", "coordinates": [ -85.372722522999936, 40.46794604400003 ] } },
{ "type": "Feature", "properties": { "OBJECTID": 14696, "ID": "0009047006", "NAME": "MARGARET MARY HEALTH", "ZIP": "47006", "TYPE": "CRITICAL ACCESS", "STATUS": "OPEN", "POPULATION": 25, "BEDS": 25, "TRAUMA": "NOT AVAILABLE", "HELIPAD": "NOT AVAILABLE" }, "geometry": { "type": "Point", "coordinates": [ -85.222526187999961, 39.305024896000077 ] } },
{ "type": "Feature", "properties": { "OBJECTID": 14697, "ID": "0001947025", "NAME": "COMMUNITY MENTAL HEALTH CENTER INC", "ZIP": "47025", "TYPE": "PSYCHIATRIC", "STATUS": "OPEN", "POPULATION": 16, "BEDS": 16, "TRAUMA": "NOT AVAILABLE", "HELIPAD": "Y" }, "geometry": { "type": "Point", "coordinates": [ -84.882533917999979, 39.109798476000037 ] } },
{ "type": "Feature", "properties": { "OBJECTID": 14698, "ID": "0002247025", "NAME": "DEARBORN COUNTY HOSPITAL", "ZIP": "47025", "TYPE": "GENERAL ACUTE CARE", "STATUS": "OPEN", "POPULATION": 88, "BEDS": 88, "TRAUMA": "NOT AVAILABLE", "HELIPAD": "Y" }, "geometry": { "type": "Point", "coordinates": [ -84.883399047999944, 39.111591354000041 ] } },
{ "type": "Feature", "properties": { "OBJECTID": 14699, "ID": "0002047501", "NAME": "DAVIESS COMMUNITY HOSPITAL", "ZIP": "47501", "TYPE": "GENERAL ACUTE CARE", "STATUS": "OPEN", "POPULATION": 80, "BEDS": 80, "TRAUMA": "NOT AVAILABLE", "HELIPAD": "NOT AVAILABLE" }, "geometry": { "type": "Point", "coordinates": [ -87.159752397999966, 38.659613843000045 ] } },
{ "type": "Feature", "properties": { "OBJECTID": 14700, "ID": "0010646755", "NAME": "PARKVIEW NOBLE HOSPITAL", "ZIP": "46755", "TYPE": "GENERAL ACUTE CARE", "STATUS": "OPEN", "POPULATION": 31, "BEDS": 31, "TRAUMA": "NOT AVAILABLE", "HELIPAD": "Y" }, "geometry": { "type": "Point", "coordinates": [ -85.296158310999942, 41.448340345000076 ] } },
{ "type": "Feature", "properties": { "OBJECTID": 14701, "ID": "0002147747", "NAME": "DEACONESS HOSPITAL INC", "ZIP": "47747", "TYPE": "GENERAL ACUTE CARE", "STATUS": "OPEN", "POPULATION": 509, "BEDS": 509, "TRAUMA": "LEVEL II", "HELIPAD": "Y" }, "geometry": { "type": "Point", "coordinates": [ -87.571106775999965, 37.983739541000034 ] } },
{ "type": "Feature", "properties": { "OBJECTID": 14703, "ID": "0003147714", "NAME": "EVANSVILLE STATE HOSPITAL", "ZIP": "47714", "TYPE": "PSYCHIATRIC", "STATUS": "OPEN", "POPULATION": 168, "BEDS": 168, "TRAUMA": "NOT AVAILABLE", "HELIPAD": "NOT AVAILABLE" }, "geometry": { "type": "Point", "coordinates": [ -87.50155370799996, 37.972853557000064 ] } },
{ "type": "Feature", "properties": { "OBJECTID": 14704, "ID": "0005447714", "NAME": "HEALTHSOUTH DEACONESS REHABILITATION HOSPITAL", "ZIP": "47714", "TYPE": "REHABILITATION", "STATUS": "OPEN", "POPULATION": 103, "BEDS": 103, "TRAUMA": "NOT AVAILABLE", "HELIPAD": "NOT AVAILABLE" }, "geometry": { "type": "Point", "coordinates": [ -87.50069541199997, 37.956130735000045 ] } },
{ "type": "Feature", "properties": { "OBJECTID": 14705, "ID": "0005047804", "NAME": "HAMILTON CENTER INC", "ZIP": "47804", "TYPE": "PSYCHIATRIC", "STATUS": "OPEN", "POPULATION": 16, "BEDS": 16, "TRAUMA": "NOT AVAILABLE", "HELIPAD": "Y" }, "geometry": { "type": "Point", "coordinates": [ -87.40998362199997, 39.485410862000037 ] } },
{ "type": "Feature", "properties": { "OBJECTID": 14706, "ID": "0007446526", "NAME": "IU HEALTH GOSHEN HOSPITAL", "ZIP": "46526", "TYPE": "GENERAL ACUTE CARE", "STATUS": "OPEN", "POPULATION": 120, "BEDS": 120, "TRAUMA": "NOT AVAILABLE", "HELIPAD": "NOT AVAILABLE" }, "geometry": { "type": "Point", "coordinates": [ -85.830604705999974, 41.563292078000075 ] } },
{ "type": "Feature", "properties": { "OBJECTID": 14707, "ID": "0010046527", "NAME": "OAKLAWN PSYCHIATRIC CENTER INC", "ZIP": "46527", "TYPE": "PSYCHIATRIC", "STATUS": "OPEN", "POPULATION": 16, "BEDS": 16, "TRAUMA": "NOT AVAILABLE", "HELIPAD": "NOT AVAILABLE" }, "geometry": { "type": "Point", "coordinates": [ -85.83948540199998, 41.603604119000067 ] } },
{ "type": "Feature", "properties": { "OBJECTID": 14708, "ID": "0009347546", "NAME": "MEMORIAL HOSPITAL AND HEALTH CARE CENTER", "ZIP": "47546", "TYPE": "GENERAL ACUTE CARE", "STATUS": "OPEN", "POPULATION": 123, "BEDS": 123, "TRAUMA": "NOT AVAILABLE", "HELIPAD": "Y" }, "geometry": { "type": "Point", "coordinates": [ -86.941229410999938, 38.39501216900004 ] } },
{ "type": "Feature", "properties": { "OBJECTID": 14709, "ID": "0002446706", "NAME": "DEKALB HEALTH", "ZIP": "46706", "TYPE": "GENERAL ACUTE CARE", "STATUS": "OPEN", "POPULATION": 56, "BEDS": 56, "TRAUMA": "NOT AVAILABLE", "HELIPAD": "NOT AVAILABLE" }, "geometry": { "type": "Point", "coordinates": [ -85.03539417099995, 41.368866859000036 ] } },
{ "type": "Feature", "properties": { "OBJECTID": 14710, "ID": "0002347240", "NAME": "DECATUR COUNTY MEMORIAL HOSPITAL", "ZIP": "47240", "TYPE": "CRITICAL ACCESS", "STATUS": "OPEN", "POPULATION": 25, "BEDS": 25, "TRAUMA": "NOT AVAILABLE", "HELIPAD": "NOT AVAILABLE" }, "geometry": { "type": "Point", "coordinates": [ -85.478711942999951, 39.344223887000055 ] } },
{ "type": "Feature", "properties": { "OBJECTID": 14711, "ID": "0009946706", "NAME": "NORTHEASTERN CENTER", "ZIP": "46706", "TYPE": "PSYCHIATRIC", "STATUS": "OPEN", "POPULATION": 16, "BEDS": 16, "TRAUMA": "NOT AVAILABLE", "HELIPAD": "NOT AVAILABLE" }, "geometry": { "type": "Point", "coordinates": [ -85.029953850999959, 41.370956051000064 ] } },
{ "type": "Feature", "properties": { "OBJECTID": 14712, "ID": "0000847303", "NAME": "CENTRAL INDIANA AMG SPECIALTY HOSPITAL LLC", "ZIP": "47303", "TYPE": "LONG TERM CARE", "STATUS": "OPEN", "POPULATION": 16, "BEDS": 16, "TRAUMA": "NOT AVAILABLE", "HELIPAD": "Y" }, "geometry": { "type": "Point", "coordinates": [ -85.41399144799999, 40.196741842000051 ] } },
{ "type": "Feature", "properties": { "OBJECTID": 14713, "ID": "0006247303", "NAME": "INDIANA UNIVERSITY HEALTH BALL MEMORIAL HOSPITAL", "ZIP": "47303", "TYPE": "GENERAL ACUTE CARE", "STATUS": "OPEN", "POPULATION": 379, "BEDS": 379, "TRAUMA": "LEVEL III", "HELIPAD": "Y" }, "geometry": { "type": "Point", "coordinates": [ -85.415555942999958, 40.196777534000034 ] } },
{ "type": "Feature", "properties": { "OBJECTID": 14714, "ID": "0004346158", "NAME": "FRANCISCAN ST FRANCIS HEALTH - MOORESVILLE", "ZIP": "46158", "TYPE": "GENERAL ACUTE CARE", "STATUS": "OPEN", "POPULATION": 115, "BEDS": 115, "TRAUMA": "NOT AVAILABLE", "HELIPAD": "NOT AVAILABLE" }, "geometry": { "type": "Point", "coordinates": [ -86.355692528999953, 39.60785711300008 ] } },
{ "type": "Feature", "properties": { "OBJECTID": 14715, "ID": "0002746970", "NAME": "DUKES MEMORIAL HOSPITAL", "ZIP": "46970", "TYPE": "CRITICAL ACCESS", "STATUS": "OPEN", "POPULATION": 25, "BEDS": 25, "TRAUMA": "NOT AVAILABLE", "HELIPAD": "NOT AVAILABLE" }, "geometry": { "type": "Point", "coordinates": [ -86.082403797999973, 40.756646283000066 ] } },
{ "type": "Feature", "properties": { "OBJECTID": 14716, "ID": "0003947933", "NAME": "FRANCISCAN ST ELIZABETH HEALTH - CRAWFORDSVILLE", "ZIP": "47933", "TYPE": "GENERAL ACUTE CARE", "STATUS": "OPEN", "POPULATION": 103, "BEDS": 103, "TRAUMA": "NOT AVAILABLE", "HELIPAD": "Y" }, "geometry": { "type": "Point", "coordinates": [ -86.90557191399995, 40.066471857000067 ] } },
{ "type": "Feature", "properties": { "OBJECTID": 14717, "ID": "0000447404", "NAME": "BLOOMINGTON MEADOWS HOSPITAL", "ZIP": "47404", "TYPE": "PSYCHIATRIC", "STATUS": "OPEN", "POPULATION": 71, "BEDS": 71, "TRAUMA": "NOT AVAILABLE", "HELIPAD": "NOT AVAILABLE" }, "geometry": { "type": "Point", "coordinates": [ -86.550922128999957, 39.205979514000035 ] } },
{ "type": "Feature", "properties": { "OBJECTID": 14718, "ID": "0006547403", "NAME": "INDIANA UNIVERSITY HEALTH BLOOMINGTON HOSPITAL", "ZIP": "47403", "TYPE": "GENERAL ACUTE CARE", "STATUS": "OPEN", "POPULATION": 297, "BEDS": 297, "TRAUMA": "LEVEL III", "HELIPAD": "Y" }, "geometry": { "type": "Point", "coordinates": [ -86.539893594999967, 39.159892950000028 ] } },
{ "type": "Feature", "properties": { "OBJECTID": 14720, "ID": "0008546580", "NAME": "KOSCIUSKO COMMUNITY HOSPITAL", "ZIP": "46580", "TYPE": "GENERAL ACUTE CARE", "STATUS": "OPEN", "POPULATION": 72, "BEDS": 72, "TRAUMA": "NOT AVAILABLE", "HELIPAD": "Y" }, "geometry": { "type": "Point", "coordinates": [ -85.828844241999946, 41.248343815000055 ] } },
{ "type": "Feature", "properties": { "OBJECTID": 14721, "ID": "0000647630", "NAME": "BRENTWOOD MEADOWS LLC", "ZIP": "47630", "TYPE": "PSYCHIATRIC", "STATUS": "OPEN", "POPULATION": 48, "BEDS": 48, "TRAUMA": "NOT AVAILABLE", "HELIPAD": "NOT AVAILABLE" }, "geometry": { "type": "Point", "coordinates": [ -87.331528502999959, 37.992909968000049 ] } },
{ "type": "Feature", "properties": { "OBJECTID": 14722, "ID": "0000546714", "NAME": "BLUFFTON REGIONAL MEDICAL CENTER", "ZIP": "46714", "TYPE": "GENERAL ACUTE CARE", "STATUS": "OPEN", "POPULATION": 79, "BEDS": 79, "TRAUMA": "NOT AVAILABLE", "HELIPAD": "NOT AVAILABLE" }, "geometry": { "type": "Point", "coordinates": [ -85.170774990999973, 40.737354839000034 ] } },
{ "type": "Feature", "properties": { "OBJECTID": 14723, "ID": "0001146321", "NAME": "COMMUNITY HOSPITAL", "ZIP": "46321", "TYPE": "GENERAL ACUTE CARE", "STATUS": "OPEN", "POPULATION": 458, "BEDS": 458, "TRAUMA": "NOT AVAILABLE", "HELIPAD": "Y" }, "geometry": { "type": "Point", "coordinates": [ -87.505909605999989, 41.550617509000062 ] } },
{ "type": "Feature", "properties": { "OBJECTID": 14724, "ID": "0003646321", "NAME": "FRANCISCAN PHYSICIANS HOSPITAL LLC", "ZIP": "46321", "TYPE": "GENERAL ACUTE CARE", "STATUS": "OPEN", "POPULATION": 63, "BEDS": 63, "TRAUMA": "NOT AVAILABLE", "HELIPAD": "NOT AVAILABLE" }, "geometry": { "type": "Point", "coordinates": [ -87.512019316999954, 41.537757928000076 ] } },
{ "type": "Feature", "properties": { "OBJECTID": 14725, "ID": "0003746307", "NAME": "FRANCISCAN ST ANTHONY HEALTH - CROWN POINT", "ZIP": "46307", "TYPE": "GENERAL ACUTE CARE", "STATUS": "OPEN", "POPULATION": 183, "BEDS": 183, "TRAUMA": "LEVEL III", "HELIPAD": "Y" }, "geometry": { "type": "Point", "coordinates": [ -87.366975003999983, 41.39562034000005 ] } },
{ "type": "Feature", "properties": { "OBJECTID": 14726, "ID": "0004446311", "NAME": "FRANCISCAN ST MARGARET HEALTH - DYER", "ZIP": "46311", "TYPE": "GENERAL ACUTE CARE", "STATUS": "OPEN", "POPULATION": 198, "BEDS": 198, "TRAUMA": "NOT AVAILABLE", "HELIPAD": "Y" }, "geometry": { "type": "Point", "coordinates": [ -87.524717437999982, 41.492351461000055 ] } },
{ "type": "Feature", "properties": { "OBJECTID": 14727, "ID": "0004546320", "NAME": "FRANCISCAN ST MARGARET HEALTH - HAMMOND", "ZIP": "46320", "TYPE": "GENERAL ACUTE CARE", "STATUS": "OPEN", "POPULATION": 215, "BEDS": 215, "TRAUMA": "NOT AVAILABLE", "HELIPAD": "Y" }, "geometry": { "type": "Point", "coordinates": [ -87.523989502999939, 41.615112110000041 ] } },
{ "type": "Feature", "properties": { "OBJECTID": 14728, "ID": "0007647978", "NAME": "FRANCISCAN HEALTHCARE RENSSLAER", "ZIP": "47978", "TYPE": "CRITICAL ACCESS", "STATUS": "OPEN", "POPULATION": 46, "BEDS": 46, "TRAUMA": "NOT AVAILABLE", "HELIPAD": "Y" }, "geometry": { "type": "Point", "coordinates": [ -87.138779208999949, 40.934513124000034 ] } },
{ "type": "Feature", "properties": { "OBJECTID": 14729, "ID": "0008246320", "NAME": "KINDRED HOSPITAL NORTHWEST INDIANA", "ZIP": "46320", "TYPE": "LONG TERM CARE", "STATUS": "OPEN", "POPULATION": 215, "BEDS": 215, "TRAUMA": "NOT AVAILABLE", "HELIPAD": "Y" }, "geometry": { "type": "Point", "coordinates": [ -87.523073410999984, 41.615157320000037 ] } },
{ "type": "Feature", "properties": { "OBJECTID": 14730, "ID": "0009646402", "NAME": "METHODIST HOSPITALS INC", "ZIP": "46402", "TYPE": "GENERAL ACUTE CARE", "STATUS": "OPEN", "POPULATION": 536, "BEDS": 536, "TRAUMA": "LEVEL III", "HELIPAD": "Y" }, "geometry": { "type": "Point", "coordinates": [ -87.357670333999977, 41.599559432000035 ] } },
{ "type": "Feature", "properties": { "OBJECTID": 14731, "ID": "0011146307", "NAME": "PINNACLE HOSPITAL", "ZIP": "46307", "TYPE": "GENERAL ACUTE CARE", "STATUS": "OPEN", "POPULATION": 18, "BEDS": 18, "TRAUMA": "NOT AVAILABLE", "HELIPAD": "NOT AVAILABLE" }, "geometry": { "type": "Point", "coordinates": [ -87.328566544999944, 41.448081698000067 ] } },
{ "type": "Feature", "properties": { "OBJECTID": 14732, "ID": "0004147905", "NAME": "FRANCISCAN ST ELIZABETH HEALTH - LAFAYETTE EAST", "ZIP": "47905", "TYPE": "GENERAL ACUTE CARE", "STATUS": "OPEN", "POPULATION": 186, "BEDS": 186, "TRAUMA": "LEVEL III", "HELIPAD": "Y" }, "geometry": { "type": "Point", "coordinates": [ -86.834549058999983, 40.394020232000059 ] } },
{ "type": "Feature", "properties": { "OBJECTID": 14733, "ID": "0006947454", "NAME": "INDIANA UNIVERSITY HEALTH PAOLI HOSPITAL", "ZIP": "47454", "TYPE": "CRITICAL ACCESS", "STATUS": "OPEN", "POPULATION": 24, "BEDS": 24, "TRAUMA": "NOT AVAILABLE", "HELIPAD": "Y" }, "geometry": { "type": "Point", "coordinates": [ -86.475163717999976, 38.568361438000068 ] } },
{ "type": "Feature", "properties": { "OBJECTID": 14734, "ID": "0000346143", "NAME": "BHC VALLE VISTA HOSPITAL", "ZIP": "46143", "TYPE": "PSYCHIATRIC", "STATUS": "OPEN", "POPULATION": 98, "BEDS": 98, "TRAUMA": "NOT AVAILABLE", "HELIPAD": "NOT AVAILABLE" }, "geometry": { "type": "Point", "coordinates": [ -86.086413637999954, 39.615677874000028 ] } },
{ "type": "Feature", "properties": { "OBJECTID": 14735, "ID": "0007846131", "NAME": "JOHNSON MEMORIAL HOSPITAL", "ZIP": "46131", "TYPE": "GENERAL ACUTE CARE", "STATUS": "OPEN", "POPULATION": 125, "BEDS": 125, "TRAUMA": "NOT AVAILABLE", "HELIPAD": "Y" }, "geometry": { "type": "Point", "coordinates": [ -86.077000602999988, 39.479667741000071 ] } },
{ "type": "Feature", "properties": { "OBJECTID": 14736, "ID": "0007146072", "NAME": "INDIANA UNIVERSITY HEALTH TIPTON HOSPITAL INC", "ZIP": "46072", "TYPE": "CRITICAL ACCESS", "STATUS": "OPEN", "POPULATION": 25, "BEDS": 25, "TRAUMA": "NOT AVAILABLE", "HELIPAD": "NOT AVAILABLE" }, "geometry": { "type": "Point", "coordinates": [ -86.042162252999958, 40.271930354000062 ] } },
{ "type": "Feature", "properties": { "OBJECTID": 14737, "ID": "0000746703", "NAME": "CAMERON MEMORIAL COMMUNITY HOSPITAL INC", "ZIP": "46703", "TYPE": "CRITICAL ACCESS", "STATUS": "OPEN", "POPULATION": 25, "BEDS": 25, "TRAUMA": "NOT AVAILABLE", "HELIPAD": "Y" }, "geometry": { "type": "Point", "coordinates": [ -84.994689107999989, 41.634378767000044 ] } },
{ "type": "Feature", "properties": { "OBJECTID": 14738, "ID": "0006147905", "NAME": "INDIANA UNIVERSITY HEALTH ARNETT HOSPITAL", "ZIP": "47905", "TYPE": "GENERAL ACUTE CARE", "STATUS": "OPEN", "POPULATION": 191, "BEDS": 191, "TRAUMA": "LEVEL III", "HELIPAD": "Y" }, "geometry": { "type": "Point", "coordinates": [ -86.806373218999966, 40.400530442000047 ] } },
{ "type": "Feature", "properties": { "OBJECTID": 14739, "ID": "0003846360", "NAME": "FRANCISCAN ST ANTHONY HEALTH - MICHIGAN CITY", "ZIP": "46360", "TYPE": "GENERAL ACUTE CARE", "STATUS": "OPEN", "POPULATION": 150, "BEDS": 150, "TRAUMA": "NOT AVAILABLE", "HELIPAD": "Y" }, "geometry": { "type": "Point", "coordinates": [ -86.900461090999954, 41.706841127000075 ] } },
{ "type": "Feature", "properties": { "OBJECTID": 14740, "ID": "0006646350", "NAME": "INDIANA UNIVERSITY HEALTH LA PORTE HOSPITAL", "ZIP": "46350", "TYPE": "GENERAL ACUTE CARE", "STATUS": "OPEN", "POPULATION": 227, "BEDS": 227, "TRAUMA": "NOT AVAILABLE", "HELIPAD": "Y" }, "geometry": { "type": "Point", "coordinates": [ -86.725290267999981, 41.610652171000027 ] } },
{ "type": "Feature", "properties": { "OBJECTID": 14741, "ID": "0006347421", "NAME": "INDIANA UNIVERSITY HEALTH BEDFORD HOSPITAL", "ZIP": "47421", "TYPE": "CRITICAL ACCESS", "STATUS": "OPEN", "POPULATION": 25, "BEDS": 25, "TRAUMA": "NOT AVAILABLE", "HELIPAD": "Y" }, "geometry": { "type": "Point", "coordinates": [ -86.51319831699999, 38.859920877000036 ] } },
{ "type": "Feature", "properties": { "OBJECTID": 14742, "ID": "0001446011", "NAME": "COMMUNITY HOSPITAL OF ANDERSON AND MADISON COUNTY", "ZIP": "46011", "TYPE": "GENERAL ACUTE CARE", "STATUS": "OPEN", "POPULATION": 137, "BEDS": 137, "TRAUMA": "LEVEL III", "HELIPAD": "Y" }, "geometry": { "type": "Point", "coordinates": [ -85.693209183999954, 40.13064558800005 ] } },
{ "type": "Feature", "properties": { "OBJECTID": 14743, "ID": "0009446601", "NAME": "MEMORIAL HOSPITAL OF SOUTH BEND", "ZIP": "46601", "TYPE": "GENERAL ACUTE CARE", "STATUS": "OPEN", "POPULATION": 416, "BEDS": 416, "TRAUMA": "LEVEL II", "HELIPAD": "Y" }, "geometry": { "type": "Point", "coordinates": [ -86.251578849999987, 41.684055286000046 ] } },
{ "type": "Feature", "properties": { "OBJECTID": 14744, "ID": "0007046534", "NAME": "INDIANA UNIVERSITY HEALTH STARKE HOSPITAL", "ZIP": "46534", "TYPE": "GENERAL ACUTE CARE", "STATUS": "OPEN", "POPULATION": 53, "BEDS": 53, "TRAUMA": "NOT AVAILABLE", "HELIPAD": "Y" }, "geometry": { "type": "Point", "coordinates": [ -86.621997284999964, 41.287568804000045 ] } },
{ "type": "Feature", "properties": { "OBJECTID": 14745, "ID": "0000146628", "NAME": "A ROSIE PLACE", "ZIP": "46628", "TYPE": "CHILDREN", "STATUS": "OPEN", "POPULATION": 10, "BEDS": 10, "TRAUMA": "NOT AVAILABLE", "HELIPAD": "NOT AVAILABLE" }, "geometry": { "type": "Point", "coordinates": [ -86.381464341999958, 41.720046037000031 ] } },
{ "type": "Feature", "properties": { "OBJECTID": 14746, "ID": "0004747591", "NAME": "GOOD SAMARITAN HOSPITAL", "ZIP": "47591", "TYPE": "GENERAL ACUTE CARE", "STATUS": "OPEN", "POPULATION": 175, "BEDS": 175, "TRAUMA": "LEVEL III", "HELIPAD": "Y" }, "geometry": { "type": "Point", "coordinates": [ -87.532093358999987, 38.673312929000076 ] } },
{ "type": "Feature", "properties": { "OBJECTID": 14747, "ID": "0005146140", "NAME": "HANCOCK REGIONAL HOSPITAL", "ZIP": "46140", "TYPE": "GENERAL ACUTE CARE", "STATUS": "OPEN", "POPULATION": 68, "BEDS": 68, "TRAUMA": "NOT AVAILABLE", "HELIPAD": "NOT AVAILABLE" }, "geometry": { "type": "Point", "coordinates": [ -85.768081055999971, 39.795493326000042 ] } },
{ "type": "Feature", "properties": { "OBJECTID": 14748, "ID": "0004947441", "NAME": "GREENE COUNTY GENERAL HOSPITAL", "ZIP": "47441", "TYPE": "CRITICAL ACCESS", "STATUS": "OPEN", "POPULATION": 25, "BEDS": 25, "TRAUMA": "NOT AVAILABLE", "HELIPAD": "Y" }, "geometry": { "type": "Point", "coordinates": [ -87.130309913999952, 39.04074220900003 ] } },
{ "type": "Feature", "properties": { "OBJECTID": 14749, "ID": "0006846032", "NAME": "INDIANA UNIVERSITY HEALTH NORTH HOSPITAL", "ZIP": "46032", "TYPE": "GENERAL ACUTE CARE", "STATUS": "OPEN", "POPULATION": 149, "BEDS": 149, "TRAUMA": "NOT AVAILABLE", "HELIPAD": "NOT AVAILABLE" }, "geometry": { "type": "Point", "coordinates": [ -86.159655666999981, 39.959344478000048 ] } },
{ "type": "Feature", "properties": { "OBJECTID": 14750, "ID": "0004647670", "NAME": "GIBSON GENERAL HOSPITAL", "ZIP": "47670", "TYPE": "CRITICAL ACCESS", "STATUS": "OPEN", "POPULATION": 25, "BEDS": 25, "TRAUMA": "NOT AVAILABLE", "HELIPAD": "NOT AVAILABLE" }, "geometry": { "type": "Point", "coordinates": [ -87.589832205999983, 38.360917273000041 ] } },
{ "type": "Feature", "properties": { "OBJECTID": 14751, "ID": "0004846952", "NAME": "GRANT-BLACKFORD MENTAL HEALTH, INC", "ZIP": "46952", "TYPE": "PSYCHIATRIC", "STATUS": "OPEN", "POPULATION": 16, "BEDS": 16, "TRAUMA": "NOT AVAILABLE", "HELIPAD": "NOT AVAILABLE" }, "geometry": { "type": "Point", "coordinates": [ -85.666240799999969, 40.564232786000048 ] } },
{ "type": "Feature", "properties": { "OBJECTID": 14752, "ID": "0009146952", "NAME": "MARION GENERAL HOSPITAL", "ZIP": "46952", "TYPE": "GENERAL ACUTE CARE", "STATUS": "OPEN", "POPULATION": 97, "BEDS": 97, "TRAUMA": "NOT AVAILABLE", "HELIPAD": "NOT AVAILABLE" }, "geometry": { "type": "Point", "coordinates": [ -85.664163258999963, 40.563695203000066 ] } },
{ "type": "Feature", "properties": { "OBJECTID": 14753, "ID": "0001546506", "NAME": "COMMUNITY HOSPITAL OF BREMEN INC", "ZIP": "46506", "TYPE": "CRITICAL ACCESS", "STATUS": "OPEN", "POPULATION": 24, "BEDS": 24, "TRAUMA": "NOT AVAILABLE", "HELIPAD": "Y" }, "geometry": { "type": "Point", "coordinates": [ -86.158849722999946, 41.456467767000049 ] } },
{ "type": "Feature", "properties": { "OBJECTID": 14754, "ID": "0002646506", "NAME": "DOCTORS NEUROPSYCHIATRIC HOSPITAL", "ZIP": "46506", "TYPE": "PSYCHIATRIC", "STATUS": "OPEN", "POPULATION": 37, "BEDS": 37, "TRAUMA": "NOT AVAILABLE", "HELIPAD": "NOT AVAILABLE" }, "geometry": { "type": "Point", "coordinates": [ -86.150319347999982, 41.443335034000029 ] } },
{ "type": "Feature", "properties": { "OBJECTID": 14755, "ID": "0009746563", "NAME": "MICHIANA BEHAVIORAL HEALTH CENTER", "ZIP": "46563", "TYPE": "PSYCHIATRIC", "STATUS": "OPEN", "POPULATION": 51, "BEDS": 51, "TRAUMA": "NOT AVAILABLE", "HELIPAD": "NOT AVAILABLE" }, "geometry": { "type": "Point", "coordinates": [ -86.327573916999938, 41.356927921000079 ] } },
{ "type": "Feature", "properties": { "OBJECTID": 14756, "ID": "0010446750", "NAME": "PARKVIEW HUNTINGTON HOSPITAL", "ZIP": "46750", "TYPE": "GENERAL ACUTE CARE", "STATUS": "OPEN", "POPULATION": 36, "BEDS": 36, "TRAUMA": "NOT AVAILABLE", "HELIPAD": "NOT AVAILABLE" }, "geometry": { "type": "Point", "coordinates": [ -85.488746982999942, 40.905877738000072 ] } },
{ "type": "Feature", "properties": { "OBJECTID": 14757, "ID": "0003347331", "NAME": "FAYETTE REGIONAL HEALTH SYSTEM", "ZIP": "47331", "TYPE": "GENERAL ACUTE CARE", "STATUS": "OPEN", "POPULATION": 99, "BEDS": 99, "TRAUMA": "NOT AVAILABLE", "HELIPAD": "Y" }, "geometry": { "type": "Point", "coordinates": [ -85.132660997999949, 39.656238175000055 ] } },
{ "type": "Feature", "properties": { "OBJECTID": 14758, "ID": "0010846725", "NAME": "PARKVIEW WHITLEY HOSPITAL", "ZIP": "46725", "TYPE": "GENERAL ACUTE CARE", "STATUS": "OPEN", "POPULATION": 30, "BEDS": 30, "TRAUMA": "NOT AVAILABLE", "HELIPAD": "NOT AVAILABLE" }, "geometry": { "type": "Point", "coordinates": [ -85.464901590999943, 41.158646371000032 ] } },
{ "type": "Feature", "properties": { "OBJECTID": 14759, "ID": "0007347960", "NAME": "INDIANA UNIVERSITY HEALTH WHITE MEMORIAL HOSPITAL", "ZIP": "47960", "TYPE": "CRITICAL ACCESS", "STATUS": "OPEN", "POPULATION": 25, "BEDS": 25, "TRAUMA": "NOT AVAILABLE", "HELIPAD": "NOT AVAILABLE" }, "geometry": { "type": "Point", "coordinates": [ -86.777599604999978, 40.733974689000036 ] } },
{ "type": "Feature", "properties": { "OBJECTID": 14760, "ID": "0001246219", "NAME": "COMMUNITY HOSPITAL EAST", "ZIP": "46219", "TYPE": "GENERAL ACUTE CARE", "STATUS": "OPEN", "POPULATION": 335, "BEDS": 335, "TRAUMA": "NOT AVAILABLE", "HELIPAD": "NOT AVAILABLE" }, "geometry": { "type": "Point", "coordinates": [ -86.075498183999969, 39.787313719000053 ] } },
{ "type": "Feature", "properties": { "OBJECTID": 14761, "ID": "0001346256", "NAME": "COMMUNITY HOSPITAL NORTH", "ZIP": "46256", "TYPE": "GENERAL ACUTE CARE", "STATUS": "OPEN", "POPULATION": 339, "BEDS": 339, "TRAUMA": "NOT AVAILABLE", "HELIPAD": "NOT AVAILABLE" }, "geometry": { "type": "Point", "coordinates": [ -86.042163092999942, 39.901116092000052 ] } },
{ "type": "Feature", "properties": { "OBJECTID": 14762, "ID": "0001646227", "NAME": "COMMUNITY HOSPITAL SOUTH", "ZIP": "46227", "TYPE": "GENERAL ACUTE CARE", "STATUS": "OPEN", "POPULATION": 158, "BEDS": 158, "TRAUMA": "NOT AVAILABLE", "HELIPAD": "NOT AVAILABLE" }, "geometry": { "type": "Point", "coordinates": [ -86.132651340999985, 39.636802980000027 ] } },
{ "type": "Feature", "properties": { "OBJECTID": 14764, "ID": "0004246237", "NAME": "FRANCISCAN ST FRANCIS HEALTH - INDIANAPOLIS", "ZIP": "46237", "TYPE": "GENERAL ACUTE CARE", "STATUS": "OPEN", "POPULATION": 485, "BEDS": 485, "TRAUMA": "NOT AVAILABLE", "HELIPAD": "NOT AVAILABLE" }, "geometry": { "type": "Point", "coordinates": [ -86.079467627999975, 39.648717759000078 ] } },
{ "type": "Feature", "properties": { "OBJECTID": 14765, "ID": "0008046222", "NAME": "KINDRED HOSPITAL INDIANAPOLIS", "ZIP": "46222", "TYPE": "LONG TERM CARE", "STATUS": "OPEN", "POPULATION": 59, "BEDS": 59, "TRAUMA": "NOT AVAILABLE", "HELIPAD": "NOT AVAILABLE" }, "geometry": { "type": "Point", "coordinates": [ -86.191449165999984, 39.78150185100003 ] } },
{ "type": "Feature", "properties": { "OBJECTID": 14766, "ID": "0008646222", "NAME": "LARUE D CARTER MEMORIAL HOSPITAL", "ZIP": "46222", "TYPE": "PSYCHIATRIC", "STATUS": "OPEN", "POPULATION": 159, "BEDS": 159, "TRAUMA": "NOT AVAILABLE", "HELIPAD": "NOT AVAILABLE" }, "geometry": { "type": "Point", "coordinates": [ -86.201292047999971, 39.802493552000044 ] } },
{ "type": "Feature", "properties": { "OBJECTID": 14767, "ID": "0010146226", "NAME": "OPTIONS BEHAVIORAL HEALTH SYSTEM", "ZIP": "46226", "TYPE": "PSYCHIATRIC", "STATUS": "OPEN", "POPULATION": 56, "BEDS": 56, "TRAUMA": "NOT AVAILABLE", "HELIPAD": "NOT AVAILABLE" }, "geometry": { "type": "Point", "coordinates": [ -86.043738589999975, 39.855761569000038 ] } },
{ "type": "Feature", "properties": { "OBJECTID": 14768, "ID": "0008847250", "NAME": "MADISON STATE HOSPITAL", "ZIP": "47250", "TYPE": "PSYCHIATRIC", "STATUS": "OPEN", "POPULATION": 150, "BEDS": 150, "TRAUMA": "NOT AVAILABLE", "HELIPAD": "NOT AVAILABLE" }, "geometry": { "type": "Point", "coordinates": [ -85.401992920999987, 38.746061514000075 ] } },
{ "type": "Feature", "properties": { "OBJECTID": 14769, "ID": "0007747371", "NAME": "JAY COUNTY HOSPITAL", "ZIP": "47371", "TYPE": "CRITICAL ACCESS", "STATUS": "OPEN", "POPULATION": 35, "BEDS": 35, "TRAUMA": "NOT AVAILABLE", "HELIPAD": "NOT AVAILABLE" }, "geometry": { "type": "Point", "coordinates": [ -84.984920241999987, 40.44129836500008 ] } },
{ "type": "Feature", "properties": { "OBJECTID": 14770, "ID": "0005647362", "NAME": "HENRY COUNTY MEMORIAL HOSPITAL", "ZIP": "47362", "TYPE": "GENERAL ACUTE CARE", "STATUS": "OPEN", "POPULATION": 90, "BEDS": 90, "TRAUMA": "NOT AVAILABLE", "HELIPAD": "Y" }, "geometry": { "type": "Point", "coordinates": [ -85.362963152999953, 39.943377009000073 ] } },
{ "type": "Feature", "properties": { "OBJECTID": 14771, "ID": "0001746904", "NAME": "COMMUNITY HOWARD REGIONAL HEALTH INC", "ZIP": "46904", "TYPE": "GENERAL ACUTE CARE", "STATUS": "OPEN", "POPULATION": 86, "BEDS": 86, "TRAUMA": "NOT AVAILABLE", "HELIPAD": "Y" }, "geometry": { "type": "Point", "coordinates": [ -86.124659010999949, 40.447201693000068 ] } },
{ "type": "Feature", "properties": { "OBJECTID": 14772, "ID": "0001846901", "NAME": "COMMUNITY HOWARD SPECIALTY HOSPITAL", "ZIP": "46901", "TYPE": "REHABILITATION", "STATUS": "OPEN", "POPULATION": 30, "BEDS": 30, "TRAUMA": "NOT AVAILABLE", "HELIPAD": "NOT AVAILABLE" }, "geometry": { "type": "Point", "coordinates": [ -86.165804009999988, 40.497256422000078 ] } },
{ "type": "Feature", "properties": { "OBJECTID": 14773, "ID": "0005247112", "NAME": "HARRISON COUNTY HOSPITAL", "ZIP": "47112", "TYPE": "CRITICAL ACCESS", "STATUS": "OPEN", "POPULATION": 25, "BEDS": 25, "TRAUMA": "NOT AVAILABLE", "HELIPAD": "NOT AVAILABLE" }, "geometry": { "type": "Point", "coordinates": [ -86.14768898799997, 38.23787528500003 ] } },
{ "type": "Feature", "properties": { "OBJECTID": 14774, "ID": "0005546122", "NAME": "HENDRICKS REGIONAL HEALTH", "ZIP": "46122", "TYPE": "GENERAL ACUTE CARE", "STATUS": "OPEN", "POPULATION": 160, "BEDS": 160, "TRAUMA": "NOT AVAILABLE", "HELIPAD": "Y" }, "geometry": { "type": "Point", "coordinates": [ -86.501882129999956, 39.761912163000034 ] } },
{ "type": "Feature", "properties": { "OBJECTID": 14775, "ID": "0007546123", "NAME": "INDIANA UNIVERSITY HEALTH WEST HOSPITAL", "ZIP": "46123", "TYPE": "GENERAL ACUTE CARE", "STATUS": "OPEN", "POPULATION": 127, "BEDS": 127, "TRAUMA": "NOT AVAILABLE", "HELIPAD": "NOT AVAILABLE" }, "geometry": { "type": "Point", "coordinates": [ -86.340446633999989, 39.780504393000058 ] } },
{ "type": "Feature", "properties": { "OBJECTID": 14776, "ID": "0003447150", "NAME": "FLOYD MEMORIAL HOSPITAL AND HEALTH SERVICES", "ZIP": "47150", "TYPE": "GENERAL ACUTE CARE", "STATUS": "OPEN", "POPULATION": 225, "BEDS": 225, "TRAUMA": "NOT AVAILABLE", "HELIPAD": "Y" }, "geometry": { "type": "Point", "coordinates": [ -85.834335191999969, 38.301364386000046 ] } },
{ "type": "Feature", "properties": { "OBJECTID": 14777, "ID": "0011047150", "NAME": "PHYSICIANS' MEDICAL CENTER LLC", "ZIP": "47150", "TYPE": "SPECIAL", "STATUS": "OPEN", "POPULATION": 12, "BEDS": 12, "TRAUMA": "NOT AVAILABLE", "HELIPAD": "NOT AVAILABLE" }, "geometry": { "type": "Point", "coordinates": [ -85.827989948999971, 38.339954129000034 ] } },
{ "type": "Feature", "properties": { "OBJECTID": 14778, "ID": "0016946052", "NAME": "WITHAM HEALTH SERVICES", "ZIP": "46052", "TYPE": "GENERAL ACUTE CARE", "STATUS": "OPEN", "POPULATION": 52, "BEDS": 52, "TRAUMA": "NOT AVAILABLE", "HELIPAD": "NOT AVAILABLE" }, "geometry": { "type": "Point", "coordinates": [ -86.472990401999937, 40.077473453000039 ] } },
{ "type": "Feature", "properties": { "OBJECTID": 14779, "ID": "0016647130", "NAME": "WELLSTONE REGIONAL HOSPITAL", "ZIP": "47130", "TYPE": "PSYCHIATRIC", "STATUS": "OPEN", "POPULATION": 100, "BEDS": 100, "TRAUMA": "NOT AVAILABLE", "HELIPAD": "NOT AVAILABLE" }, "geometry": { "type": "Point", "coordinates": [ -85.709325224999986, 38.32690729400008 ] } },
{ "type": "Feature", "properties": { "OBJECTID": 14780, "ID": "0011346383", "NAME": "PORTER-STARKE SERVICES INC", "ZIP": "46383", "TYPE": "PSYCHIATRIC", "STATUS": "OPEN", "POPULATION": 16, "BEDS": 16, "TRAUMA": "NOT AVAILABLE", "HELIPAD": "NOT AVAILABLE" }, "geometry": { "type": "Point", "coordinates": [ -87.052033107999989, 41.489690368000026 ] } },
{ "type": "Feature", "properties": { "OBJECTID": 14781, "ID": "0011846804", "NAME": "REHABILITATION HOSPITAL OF FORT WAYNE GENERAL PAR", "ZIP": "46804", "TYPE": "REHABILITATION", "STATUS": "OPEN", "POPULATION": 36, "BEDS": 36, "TRAUMA": "NOT AVAILABLE", "HELIPAD": "NOT AVAILABLE" }, "geometry": { "type": "Point", "coordinates": [ -85.248212188999958, 41.042790267000044 ] } },
{ "type": "Feature", "properties": { "OBJECTID": 14782, "ID": "0013646802", "NAME": "ST JOSEPH HOSPITAL", "ZIP": "46802", "TYPE": "GENERAL ACUTE CARE", "STATUS": "OPEN", "POPULATION": 145, "BEDS": 145, "TRAUMA": "NOT AVAILABLE", "HELIPAD": "Y" }, "geometry": { "type": "Point", "coordinates": [ -85.149277198999982, 41.078000734000057 ] } },
{ "type": "Feature", "properties": { "OBJECTID": 14783, "ID": "0012546173", "NAME": "RUSH MEMORIAL HOSPITAL", "ZIP": "46173", "TYPE": "CRITICAL ACCESS", "STATUS": "OPEN", "POPULATION": 25, "BEDS": 25, "TRAUMA": "NOT AVAILABLE", "HELIPAD": "Y" }, "geometry": { "type": "Point", "coordinates": [ -85.44403691499997, 39.621754587000055 ] } },
{ "type": "Feature", "properties": { "OBJECTID": 14784, "ID": "0011446996", "NAME": "PULASKI MEMORIAL HOSPITAL", "ZIP": "46996", "TYPE": "CRITICAL ACCESS", "STATUS": "OPEN", "POPULATION": 25, "BEDS": 25, "TRAUMA": "NOT AVAILABLE", "HELIPAD": "NOT AVAILABLE" }, "geometry": { "type": "Point", "coordinates": [ -86.595998494999947, 41.056267569000056 ] } },
{ "type": "Feature", "properties": { "OBJECTID": 14785, "ID": "0014247834", "NAME": "ST VINCENT CLAY HOSPITAL INC", "ZIP": "47834", "TYPE": "CRITICAL ACCESS", "STATUS": "OPEN", "POPULATION": 25, "BEDS": 25, "TRAUMA": "NOT AVAILABLE", "HELIPAD": "Y" }, "geometry": { "type": "Point", "coordinates": [ -87.111811210999974, 39.529071161000047 ] } },
{ "type": "Feature", "properties": { "OBJECTID": 14786, "ID": "0014446041", "NAME": "ST VINCENT FRANKFORT HOSPITAL INC", "ZIP": "46041", "TYPE": "CRITICAL ACCESS", "STATUS": "OPEN", "POPULATION": 25, "BEDS": 25, "TRAUMA": "NOT AVAILABLE", "HELIPAD": "Y" }, "geometry": { "type": "Point", "coordinates": [ -86.511280709999937, 40.269550646000027 ] } },
{ "type": "Feature", "properties": { "OBJECTID": 14787, "ID": "0013947750", "NAME": "ST MARY'S MEDICAL CENTER OF EVANSVILLE INC", "ZIP": "47750", "TYPE": "GENERAL ACUTE CARE", "STATUS": "OPEN", "POPULATION": 426, "BEDS": 426, "TRAUMA": "LEVEL II, PEDIACTRICS II", "HELIPAD": "Y" }, "geometry": { "type": "Point", "coordinates": [ -87.50292615099994, 37.963344449000033 ] } },
{ "type": "Feature", "properties": { "OBJECTID": 14788, "ID": "0016047842", "NAME": "UNION HOSPITAL CLINTON", "ZIP": "47842", "TYPE": "CRITICAL ACCESS", "STATUS": "OPEN", "POPULATION": 25, "BEDS": 25, "TRAUMA": "NOT AVAILABLE", "HELIPAD": "Y" }, "geometry": { "type": "Point", "coordinates": [ -87.399184209999987, 39.652902508000068 ] } },
{ "type": "Feature", "properties": { "OBJECTID": 14789, "ID": "0015747802", "NAME": "TERRE HAUTE REGIONAL HOSPITAL", "ZIP": "47802", "TYPE": "GENERAL ACUTE CARE", "STATUS": "OPEN", "POPULATION": 278, "BEDS": 278, "TRAUMA": "LEVEL II", "HELIPAD": "Y" }, "geometry": { "type": "Point", "coordinates": [ -87.409046742999976, 39.419396156000062 ] } },
{ "type": "Feature", "properties": { "OBJECTID": 14790, "ID": "0016147804", "NAME": "UNION HOSPITAL INC", "ZIP": "47804", "TYPE": "GENERAL ACUTE CARE", "STATUS": "OPEN", "POPULATION": 211, "BEDS": 211, "TRAUMA": "LEVEL III", "HELIPAD": "Y" }, "geometry": { "type": "Point", "coordinates": [ -87.406975607999982, 39.48586457600004 ] } },
{ "type": "Feature", "properties": { "OBJECTID": 14791, "ID": "0016546992", "NAME": "PARKVIEW WABASH HOSPITAL", "ZIP": "46992", "TYPE": "CRITICAL ACCESS", "STATUS": "OPEN", "POPULATION": 25, "BEDS": 25, "TRAUMA": "NOT AVAILABLE", "HELIPAD": "Y" }, "geometry": { "type": "Point", "coordinates": [ -85.815870035999978, 40.806916615000034 ] } },
{ "type": "Feature", "properties": { "OBJECTID": 14792, "ID": "0014047601", "NAME": "ST MARY'S WARRICK HOSPITAL INC", "ZIP": "47601", "TYPE": "CRITICAL ACCESS", "STATUS": "OPEN", "POPULATION": 35, "BEDS": 35, "TRAUMA": "NOT AVAILABLE", "HELIPAD": "NOT AVAILABLE" }, "geometry": { "type": "Point", "coordinates": [ -87.262811198999941, 38.041928632000065 ] } },
{ "type": "Feature", "properties": { "OBJECTID": 14793, "ID": "0015847630", "NAME": "THE HEART HOSPITAL AT DEACONESS GATEWAY LLC", "ZIP": "47630", "TYPE": "GENERAL ACUTE CARE", "STATUS": "OPEN", "POPULATION": 24, "BEDS": 24, "TRAUMA": "NOT AVAILABLE", "HELIPAD": "NOT AVAILABLE" }, "geometry": { "type": "Point", "coordinates": [ -87.445107775999986, 37.974883165000051 ] } },
{ "type": "Feature", "properties": { "OBJECTID": 14794, "ID": "0017047630", "NAME": "WOMEN'S HOSPITAL THE", "ZIP": "47630", "TYPE": "SPECIAL", "STATUS": "OPEN", "POPULATION": 74, "BEDS": 74, "TRAUMA": "NOT AVAILABLE", "HELIPAD": "NOT AVAILABLE" }, "geometry": { "type": "Point", "coordinates": [ -87.447302062999938, 37.973792527000057 ] } },
{ "type": "Feature", "properties": { "OBJECTID": 14795, "ID": "0015447993", "NAME": "ST VINCENT WILLIAMSPORT HOSPITAL INC", "ZIP": "47993", "TYPE": "CRITICAL ACCESS", "STATUS": "OPEN", "POPULATION": 16, "BEDS": 16, "TRAUMA": "NOT AVAILABLE", "HELIPAD": "NOT AVAILABLE" }, "geometry": { "type": "Point", "coordinates": [ -87.296701466999934, 40.290432114000055 ] } },
{ "type": "Feature", "properties": { "OBJECTID": 14796, "ID": "0012147374", "NAME": "RICHMOND STATE HOSPITAL", "ZIP": "47374", "TYPE": "PSYCHIATRIC", "STATUS": "OPEN", "POPULATION": 30, "BEDS": 30, "TRAUMA": "NOT AVAILABLE", "HELIPAD": "NOT AVAILABLE" }, "geometry": { "type": "Point", "coordinates": [ -84.925713754999947, 39.83891264600004 ] } },
{ "type": "Feature", "properties": { "OBJECTID": 14797, "ID": "0015147167", "NAME": "ST VINCENT SALEM HOSPITAL INC", "ZIP": "47167", "TYPE": "CRITICAL ACCESS", "STATUS": "OPEN", "POPULATION": 25, "BEDS": 25, "TRAUMA": "NOT AVAILABLE", "HELIPAD": "Y" }, "geometry": { "type": "Point", "coordinates": [ -86.107079114999976, 38.613268825000034 ] } },
{ "type": "Feature", "properties": { "OBJECTID": 14798, "ID": "0011646312", "NAME": "REGENCY HOSPITAL OF NORTHWEST INDIANA", "ZIP": "46312", "TYPE": "LONG TERM CARE", "STATUS": "OPEN", "POPULATION": 220, "BEDS": 220, "TRAUMA": "NOT AVAILABLE", "HELIPAD": "NOT AVAILABLE" }, "geometry": { "type": "Point", "coordinates": [ -87.447827705999941, 41.634446687000036 ] } },
{ "type": "Feature", "properties": { "OBJECTID": 14799, "ID": "0011746410", "NAME": "REGIONAL MENTAL HEALTH CENTER", "ZIP": "46410", "TYPE": "PSYCHIATRIC", "STATUS": "OPEN", "POPULATION": 16, "BEDS": 16, "TRAUMA": "NOT AVAILABLE", "HELIPAD": "NOT AVAILABLE" }, "geometry": { "type": "Point", "coordinates": [ -87.363365225999985, 41.46334709000007 ] } },
{ "type": "Feature", "properties": { "OBJECTID": 14800, "ID": "0013546312", "NAME": "ST CATHERINE HOSPITAL INC", "ZIP": "46312", "TYPE": "GENERAL ACUTE CARE", "STATUS": "OPEN", "POPULATION": 220, "BEDS": 220, "TRAUMA": "NOT AVAILABLE", "HELIPAD": "NOT AVAILABLE" }, "geometry": { "type": "Point", "coordinates": [ -87.448822320999966, 41.634789329000057 ] } },
{ "type": "Feature", "properties": { "OBJECTID": 14801, "ID": "0013846342", "NAME": "ST MARY MEDICAL CENTER INC", "ZIP": "46342", "TYPE": "GENERAL ACUTE CARE", "STATUS": "OPEN", "POPULATION": 215, "BEDS": 215, "TRAUMA": "NOT AVAILABLE", "HELIPAD": "Y" }, "geometry": { "type": "Point", "coordinates": [ -87.260791494999978, 41.512749149000058 ] } },
{ "type": "Feature", "properties": { "OBJECTID": 14802, "ID": "0016446307", "NAME": "VIBRA HOSPITAL OF NORTHWESTERN INDIANA", "ZIP": "46307", "TYPE": "LONG TERM CARE", "STATUS": "OPEN", "POPULATION": 40, "BEDS": 40, "TRAUMA": "NOT AVAILABLE", "HELIPAD": "NOT AVAILABLE" }, "geometry": { "type": "Point", "coordinates": [ -87.32539937699994, 41.444619852000073 ] } },
{ "type": "Feature", "properties": { "OBJECTID": 14803, "ID": "0015547882", "NAME": "SULLIVAN COUNTY COMMUNITY HOSPITAL", "ZIP": "47882", "TYPE": "CRITICAL ACCESS", "STATUS": "OPEN", "POPULATION": 25, "BEDS": 25, "TRAUMA": "NOT AVAILABLE", "HELIPAD": "NOT AVAILABLE" }, "geometry": { "type": "Point", "coordinates": [ -87.412610068999982, 39.125570249000077 ] } },
{ "type": "Feature", "properties": { "OBJECTID": 14804, "ID": "0012247906", "NAME": "RIVER BEND HOSPITAL", "ZIP": "47906", "TYPE": "PSYCHIATRIC", "STATUS": "OPEN", "POPULATION": 16, "BEDS": 16, "TRAUMA": "NOT AVAILABLE", "HELIPAD": "NOT AVAILABLE" }, "geometry": { "type": "Point", "coordinates": [ -86.893881989999954, 40.459714696000049 ] } },
{ "type": "Feature", "properties": { "OBJECTID": 14805, "ID": "0015647905", "NAME": "SYCAMORE SPRINGS", "ZIP": "47905", "TYPE": "PSYCHIATRIC", "STATUS": "OPEN", "POPULATION": 48, "BEDS": 48, "TRAUMA": "NOT AVAILABLE", "HELIPAD": "NOT AVAILABLE" }, "geometry": { "type": "Point", "coordinates": [ -86.82744646399999, 40.406671800000026 ] } },
{ "type": "Feature", "properties": { "OBJECTID": 14806, "ID": "0014347421", "NAME": "ST VINCENT DUNN HOSPITAL INC", "ZIP": "47421", "TYPE": "CRITICAL ACCESS", "STATUS": "OPEN", "POPULATION": 25, "BEDS": 25, "TRAUMA": "NOT AVAILABLE", "HELIPAD": "NOT AVAILABLE" }, "geometry": { "type": "Point", "coordinates": [ -86.493958170999974, 38.852872580000053 ] } },